[
  {
    "neighborhood": "Hallows",
    "city": "Los Dos Caminos",
    "averageAge": 58,
    "distanceFromCityCenter": 43.5,
    "averageIncome": 44438,
    "publicTransportAvailability": "high",
    "latitude": 10.4980067,
    "longitude": -66.8335096
  },
  {
    "neighborhood": "Stang",
    "state": "B7",
    "city": "Angoulême",
    "averageAge": 20,
    "distanceFromCityCenter": 66.1,
    "averageIncome": 92866,
    "publicTransportAvailability": "low",
    "latitude": 45.6258385,
    "longitude": 0.0629891
  },
  {
    "neighborhood": "Rockefeller",
    "city": "Nanganga",
    "averageAge": 64,
    "distanceFromCityCenter": 67.6,
    "averageIncome": 32437,
    "publicTransportAvailability": "low",
    "latitude": -10.3931514,
    "longitude": 39.1361568
  },
  {
    "neighborhood": "Hallows",
    "state": "QC",
    "city": "Beauharnois",
    "averageAge": 34,
    "distanceFromCityCenter": 13.1,
    "averageIncome": 80354,
    "publicTransportAvailability": "none",
    "latitude": 45.3044566,
    "longitude": -73.8746233
  },
  {
    "neighborhood": "Kedzie",
    "city": "Dobrica",
    "averageAge": 30,
    "distanceFromCityCenter": 0.4,
    "averageIncome": 34780,
    "publicTransportAvailability": "high",
    "latitude": 45.2075889,
    "longitude": 20.8507302
  },
  {
    "neighborhood": "3rd",
    "state": "E",
    "city": "Norrköping",
    "averageAge": 58,
    "distanceFromCityCenter": 33.2,
    "averageIncome": 59738,
    "publicTransportAvailability": "low",
    "latitude": 58.6144923,
    "longitude": 16.1378776
  },
  {
    "neighborhood": "Pierstorff",
    "city": "Nakasongola",
    "averageAge": 22,
    "distanceFromCityCenter": 4.1,
    "averageIncome": 30146,
    "publicTransportAvailability": "none",
    "latitude": 1.3118981,
    "longitude": 32.463708
  },
  {
    "neighborhood": "Stone Corner",
    "city": "Kayapa",
    "averageAge": 67,
    "distanceFromCityCenter": 54.7,
    "averageIncome": 35518,
    "publicTransportAvailability": "medium",
    "latitude": 16.3100898,
    "longitude": 120.9524145
  },
  {
    "neighborhood": "Emmet",
    "city": "Mayumba",
    "averageAge": 54,
    "distanceFromCityCenter": 42.5,
    "averageIncome": 5424,
    "publicTransportAvailability": "low",
    "latitude": -3.4426092,
    "longitude": 10.6562606
  },
  {
    "neighborhood": "Spaight",
    "state": "AB",
    "city": "Grande Prairie",
    "averageAge": 40,
    "distanceFromCityCenter": 88.9,
    "averageIncome": 2446,
    "publicTransportAvailability": "high",
    "latitude": 55.16667,
    "longitude": -118.80271
  },
  {
    "neighborhood": "Hayes",
    "city": "La Calera",
    "averageAge": 56,
    "distanceFromCityCenter": 63.6,
    "averageIncome": 52412,
    "publicTransportAvailability": "low",
    "latitude": -32.7910792,
    "longitude": -71.2106242
  },
  {
    "neighborhood": "Drewry",
    "city": "Guararema",
    "averageAge": 25,
    "distanceFromCityCenter": 5.4,
    "averageIncome": 93210,
    "publicTransportAvailability": "high",
    "latitude": -23.400962,
    "longitude": -46.011014
  },
  {
    "neighborhood": "Troy",
    "city": "Kulary",
    "averageAge": 52,
    "distanceFromCityCenter": 24.0,
    "averageIncome": 68087,
    "publicTransportAvailability": "high",
    "latitude": 43.2388068,
    "longitude": 45.5034856
  },
  {
    "neighborhood": "Barnett",
    "city": "Xujia",
    "averageAge": 43,
    "distanceFromCityCenter": 64.2,
    "averageIncome": 59473,
    "publicTransportAvailability": "high",
    "latitude": 27.646686,
    "longitude": 116.695522
  },
  {
    "neighborhood": "Mallard",
    "city": "Najrān",
    "averageAge": 24,
    "distanceFromCityCenter": 70.8,
    "averageIncome": 11505,
    "publicTransportAvailability": "none",
    "latitude": 17.5656036,
    "longitude": 44.2289441
  },
  {
    "neighborhood": "Forest",
    "city": "Tân Châu",
    "averageAge": 41,
    "distanceFromCityCenter": 71.8,
    "averageIncome": 78823,
    "publicTransportAvailability": "none",
    "latitude": 10.8026827,
    "longitude": 105.1960795
  },
  {
    "neighborhood": "Mandrake",
    "city": "Lingyang",
    "averageAge": 33,
    "distanceFromCityCenter": 98.2,
    "averageIncome": 76994,
    "publicTransportAvailability": "low",
    "latitude": 29.420261,
    "longitude": 111.127537
  },
  {
    "neighborhood": "Gateway",
    "state": "Z",
    "city": "Frösön",
    "averageAge": 32,
    "distanceFromCityCenter": 64.1,
    "averageIncome": 65309,
    "publicTransportAvailability": "medium",
    "latitude": 63.1724708,
    "longitude": 14.5922703
  },
  {
    "neighborhood": "Eagan",
    "city": "Yakymivka",
    "averageAge": 30,
    "distanceFromCityCenter": 24.4,
    "averageIncome": 38658,
    "publicTransportAvailability": "low",
    "latitude": 46.6974533,
    "longitude": 35.165005
  },
  {
    "neighborhood": "Canary",
    "city": "Yuecheng",
    "averageAge": 35,
    "distanceFromCityCenter": 38.6,
    "averageIncome": 60087,
    "publicTransportAvailability": "low",
    "latitude": 29.988244,
    "longitude": 120.582633
  },
  {
    "neighborhood": "Bunting",
    "state": "CA",
    "city": "Sacramento",
    "averageAge": 29,
    "distanceFromCityCenter": 41.3,
    "averageIncome": 39762,
    "publicTransportAvailability": "low",
    "latitude": 38.6,
    "longitude": -121.45
  },
  {
    "neighborhood": "Dovetail",
    "city": "El Valle del Espíritu Santo",
    "averageAge": 26,
    "distanceFromCityCenter": 7.8,
    "averageIncome": 38203,
    "publicTransportAvailability": "low",
    "latitude": 10.9811398,
    "longitude": -63.8788287
  },
  {
    "neighborhood": "Spohn",
    "city": "Circa",
    "averageAge": 57,
    "distanceFromCityCenter": 38.4,
    "averageIncome": 16967,
    "publicTransportAvailability": "medium",
    "latitude": -13.8791041,
    "longitude": -72.875917
  },
  {
    "neighborhood": "Thierer",
    "city": "Qukou",
    "averageAge": 20,
    "distanceFromCityCenter": 2.1,
    "averageIncome": 69377,
    "publicTransportAvailability": "low",
    "latitude": 29.731101,
    "longitude": 116.251947
  },
  {
    "neighborhood": "Sloan",
    "city": "San Ramon",
    "averageAge": 28,
    "distanceFromCityCenter": 32.2,
    "averageIncome": 4669,
    "publicTransportAvailability": "high",
    "latitude": 14.4730694,
    "longitude": 121.0286633
  },
  {
    "neighborhood": "South",
    "city": "Tatebal",
    "averageAge": 63,
    "distanceFromCityCenter": 83.6,
    "averageIncome": 27156,
    "publicTransportAvailability": "medium",
    "latitude": -8.8814738,
    "longitude": 117.3733989
  },
  {
    "neighborhood": "Bluejay",
    "state": "16",
    "city": "Ferreira",
    "averageAge": 51,
    "distanceFromCityCenter": 42.7,
    "averageIncome": 30235,
    "publicTransportAvailability": "none",
    "latitude": 41.7662205,
    "longitude": -8.5065208
  },
  {
    "neighborhood": "Center",
    "city": "Smyków",
    "averageAge": 58,
    "distanceFromCityCenter": 73.1,
    "averageIncome": 75577,
    "publicTransportAvailability": "low",
    "latitude": 51.0640549,
    "longitude": 20.3927571
  },
  {
    "neighborhood": "7th",
    "city": "Hāsilpur",
    "averageAge": 58,
    "distanceFromCityCenter": 70.1,
    "averageIncome": 17351,
    "publicTransportAvailability": "none",
    "latitude": 29.530502,
    "longitude": 72.1485713
  },
  {
    "neighborhood": "Haas",
    "city": "Fukui-shi",
    "averageAge": 32,
    "distanceFromCityCenter": 12.4,
    "averageIncome": 28184,
    "publicTransportAvailability": "none",
    "latitude": 36.1473783,
    "longitude": 136.1682227
  },
  {
    "neighborhood": "Evergreen",
    "state": "01",
    "city": "Avanca",
    "averageAge": 53,
    "distanceFromCityCenter": 21.7,
    "averageIncome": 73495,
    "publicTransportAvailability": "none",
    "latitude": 40.8024339,
    "longitude": -8.5959634
  },
  {
    "neighborhood": "Oneill",
    "city": "Massaguet",
    "averageAge": 33,
    "distanceFromCityCenter": 26.0,
    "averageIncome": 77448,
    "publicTransportAvailability": "none",
    "latitude": 12.4830445,
    "longitude": 15.4390254
  },
  {
    "neighborhood": "Old Gate",
    "city": "Treinta y Tres",
    "averageAge": 63,
    "distanceFromCityCenter": 99.0,
    "averageIncome": 62270,
    "publicTransportAvailability": "high",
    "latitude": -33.229046,
    "longitude": -54.3576473
  },
  {
    "neighborhood": "Grim",
    "city": "Bonpland",
    "averageAge": 47,
    "distanceFromCityCenter": 56.6,
    "averageIncome": 79776,
    "publicTransportAvailability": "low",
    "latitude": -34.7319408,
    "longitude": -58.611532
  },
  {
    "neighborhood": "Dovetail",
    "city": "Jianrao",
    "averageAge": 24,
    "distanceFromCityCenter": 82.0,
    "averageIncome": 80814,
    "publicTransportAvailability": "low",
    "latitude": 23.081903,
    "longitude": 113.274566
  },
  {
    "neighborhood": "Meadow Vale",
    "city": "Naschel",
    "averageAge": 55,
    "distanceFromCityCenter": 73.3,
    "averageIncome": 37348,
    "publicTransportAvailability": "medium",
    "latitude": -32.9150009,
    "longitude": -65.3749466
  },
  {
    "neighborhood": "Anthes",
    "state": "BK",
    "city": "Kecskemét",
    "averageAge": 61,
    "distanceFromCityCenter": 57.5,
    "averageIncome": 80579,
    "publicTransportAvailability": "none",
    "latitude": 46.9067373,
    "longitude": 19.691788
  },
  {
    "neighborhood": "Lukken",
    "city": "Pakham",
    "averageAge": 52,
    "distanceFromCityCenter": 49.9,
    "averageIncome": 86612,
    "publicTransportAvailability": "high",
    "latitude": 14.4390514,
    "longitude": 102.7190771
  },
  {
    "neighborhood": "Comanche",
    "city": "Kovylkino",
    "averageAge": 41,
    "distanceFromCityCenter": 44.2,
    "averageIncome": 49127,
    "publicTransportAvailability": "medium",
    "latitude": 53.9762845,
    "longitude": 43.8688442
  },
  {
    "neighborhood": "Kingsford",
    "city": "Netanya",
    "averageAge": 49,
    "distanceFromCityCenter": 95.9,
    "averageIncome": 18434,
    "publicTransportAvailability": "low",
    "latitude": 32.321458,
    "longitude": 34.853196
  },
  {
    "neighborhood": "Pennsylvania",
    "city": "Qufu",
    "averageAge": 24,
    "distanceFromCityCenter": 57.2,
    "averageIncome": 8476,
    "publicTransportAvailability": "medium",
    "latitude": 35.580996,
    "longitude": 116.986503
  },
  {
    "neighborhood": "6th",
    "city": "Purwasari",
    "averageAge": 64,
    "distanceFromCityCenter": 16.4,
    "averageIncome": 34245,
    "publicTransportAvailability": "medium",
    "latitude": -6.3660452,
    "longitude": 107.4144526
  },
  {
    "neighborhood": "Sunbrook",
    "city": "Kalutara",
    "averageAge": 35,
    "distanceFromCityCenter": 9.3,
    "averageIncome": 95787,
    "publicTransportAvailability": "medium",
    "latitude": 6.568518,
    "longitude": 79.960149
  },
  {
    "neighborhood": "Kenwood",
    "city": "Villa Dolores",
    "averageAge": 29,
    "distanceFromCityCenter": 43.2,
    "averageIncome": 3355,
    "publicTransportAvailability": "none",
    "latitude": -31.946337,
    "longitude": -65.180261
  },
  {
    "neighborhood": "Hauk",
    "city": "Mao",
    "averageAge": 67,
    "distanceFromCityCenter": 2.9,
    "averageIncome": 59504,
    "publicTransportAvailability": "none",
    "latitude": 19.5403533,
    "longitude": -71.0790048
  },
  {
    "neighborhood": "Surrey",
    "city": "Golopau",
    "averageAge": 49,
    "distanceFromCityCenter": 88.0,
    "averageIncome": 19677,
    "publicTransportAvailability": "medium",
    "latitude": -8.6222433,
    "longitude": 120.4492035
  },
  {
    "neighborhood": "Iowa",
    "city": "Carpenter",
    "averageAge": 56,
    "distanceFromCityCenter": 95.6,
    "averageIncome": 66313,
    "publicTransportAvailability": "medium",
    "latitude": 7.0055806,
    "longitude": 125.0923723
  },
  {
    "neighborhood": "Shelley",
    "city": "Bucheon-si",
    "averageAge": 54,
    "distanceFromCityCenter": 58.3,
    "averageIncome": 34086,
    "publicTransportAvailability": "low",
    "latitude": 37.5034138,
    "longitude": 126.7660309
  },
  {
    "neighborhood": "Lotheville",
    "city": "Mbumi",
    "averageAge": 56,
    "distanceFromCityCenter": 57.8,
    "averageIncome": 27016,
    "publicTransportAvailability": "low",
    "latitude": -7.9,
    "longitude": 39.2
  },
  {
    "neighborhood": "Arapahoe",
    "city": "Jishi",
    "averageAge": 55,
    "distanceFromCityCenter": 67.5,
    "averageIncome": 57891,
    "publicTransportAvailability": "none",
    "latitude": 31.2028365,
    "longitude": 121.4379074
  },
  {
    "neighborhood": "High Crossing",
    "city": "Jingling",
    "averageAge": 58,
    "distanceFromCityCenter": 71.8,
    "averageIncome": 28128,
    "publicTransportAvailability": "high",
    "latitude": 30.96187,
    "longitude": 113.378132
  },
  {
    "neighborhood": "Buena Vista",
    "city": "Al Ḩarf",
    "averageAge": 34,
    "distanceFromCityCenter": 15.8,
    "averageIncome": 25992,
    "publicTransportAvailability": "high",
    "latitude": 16.3762123,
    "longitude": 44.0865232
  },
  {
    "neighborhood": "Pankratz",
    "city": "Tarkwa",
    "averageAge": 60,
    "distanceFromCityCenter": 26.1,
    "averageIncome": 34256,
    "publicTransportAvailability": "medium",
    "latitude": 5.301832,
    "longitude": -1.9930466
  },
  {
    "neighborhood": "Autumn Leaf",
    "city": "Karakol",
    "averageAge": 39,
    "distanceFromCityCenter": 64.2,
    "averageIncome": 59586,
    "publicTransportAvailability": "medium",
    "latitude": 42.4782102,
    "longitude": 78.3955986
  },
  {
    "neighborhood": "Beilfuss",
    "state": "09",
    "city": "Vide",
    "averageAge": 67,
    "distanceFromCityCenter": 16.4,
    "averageIncome": 70952,
    "publicTransportAvailability": "high",
    "latitude": 20.6518868,
    "longitude": -105.2061347
  },
  {
    "neighborhood": "Pankratz",
    "city": "Calheta",
    "averageAge": 19,
    "distanceFromCityCenter": 36.6,
    "averageIncome": 28415,
    "publicTransportAvailability": "none",
    "latitude": 15.229571,
    "longitude": -23.2141352
  },
  {
    "neighborhood": "Briar Crest",
    "city": "Ciudad Bolivia",
    "averageAge": 46,
    "distanceFromCityCenter": 6.8,
    "averageIncome": 58351,
    "publicTransportAvailability": "medium",
    "latitude": 8.3537158,
    "longitude": -70.5770632
  },
  {
    "neighborhood": "Sauthoff",
    "city": "Neuzina",
    "averageAge": 42,
    "distanceFromCityCenter": 3.1,
    "averageIncome": 36643,
    "publicTransportAvailability": "high",
    "latitude": 45.3095119,
    "longitude": 20.7261064
  },
  {
    "neighborhood": "Troy",
    "city": "Sousse",
    "averageAge": 48,
    "distanceFromCityCenter": 75.7,
    "averageIncome": 53352,
    "publicTransportAvailability": "low",
    "latitude": 35.825603,
    "longitude": 10.608395
  },
  {
    "neighborhood": "Atwood",
    "city": "Zongluzui",
    "averageAge": 29,
    "distanceFromCityCenter": 4.4,
    "averageIncome": 16446,
    "publicTransportAvailability": "low",
    "latitude": 30.699439,
    "longitude": 115.078981
  },
  {
    "neighborhood": "Bartelt",
    "city": "Dire Dawa",
    "averageAge": 37,
    "distanceFromCityCenter": 97.3,
    "averageIncome": 37893,
    "publicTransportAvailability": "medium",
    "latitude": 9.6008747,
    "longitude": 41.850142
  },
  {
    "neighborhood": "Rusk",
    "city": "Mamfe",
    "averageAge": 52,
    "distanceFromCityCenter": 10.0,
    "averageIncome": 52134,
    "publicTransportAvailability": "low",
    "latitude": 5.7511525,
    "longitude": 9.3146014
  },
  {
    "neighborhood": "Bunting",
    "city": "Skoura",
    "averageAge": 46,
    "distanceFromCityCenter": 53.2,
    "averageIncome": 44347,
    "publicTransportAvailability": "medium",
    "latitude": 31.0604911,
    "longitude": -6.555654
  },
  {
    "neighborhood": "Mallory",
    "city": "Tomarovka",
    "averageAge": 34,
    "distanceFromCityCenter": 64.6,
    "averageIncome": 5771,
    "publicTransportAvailability": "high",
    "latitude": 50.6978262,
    "longitude": 36.1738669
  },
  {
    "neighborhood": "Vidon",
    "city": "Nantang",
    "averageAge": 36,
    "distanceFromCityCenter": 69.7,
    "averageIncome": 12493,
    "publicTransportAvailability": "none",
    "latitude": 22.058407,
    "longitude": 110.792856
  },
  {
    "neighborhood": "Raven",
    "city": "San Casimiro",
    "averageAge": 52,
    "distanceFromCityCenter": 26.5,
    "averageIncome": 77117,
    "publicTransportAvailability": "medium",
    "latitude": 9.997591,
    "longitude": -66.9511459
  },
  {
    "neighborhood": "Clemons",
    "state": "AB",
    "city": "Stockholm",
    "averageAge": 39,
    "distanceFromCityCenter": 20.1,
    "averageIncome": 85901,
    "publicTransportAvailability": "low",
    "latitude": 47.0203676,
    "longitude": -68.1435063
  },
  {
    "neighborhood": "Red Cloud",
    "city": "São Domingos",
    "averageAge": 65,
    "distanceFromCityCenter": 86.5,
    "averageIncome": 57010,
    "publicTransportAvailability": "medium",
    "latitude": 15.0286165,
    "longitude": -23.563922
  },
  {
    "neighborhood": "Sundown",
    "city": "Guhua",
    "averageAge": 33,
    "distanceFromCityCenter": 89.6,
    "averageIncome": 10652,
    "publicTransportAvailability": "medium",
    "latitude": 34.258826,
    "longitude": 108.972883
  },
  {
    "neighborhood": "West",
    "city": "Zvenyhorodka",
    "averageAge": 39,
    "distanceFromCityCenter": 91.9,
    "averageIncome": 2965,
    "publicTransportAvailability": "none",
    "latitude": 49.0762064,
    "longitude": 30.9699903
  },
  {
    "neighborhood": "Corben",
    "state": "15",
    "city": "Pinhal da Marquesa",
    "averageAge": 46,
    "distanceFromCityCenter": 59.2,
    "averageIncome": 29812,
    "publicTransportAvailability": "low",
    "latitude": 38.5904096,
    "longitude": -8.9994843
  },
  {
    "neighborhood": "Lotheville",
    "city": "Stryszawa",
    "averageAge": 36,
    "distanceFromCityCenter": 6.8,
    "averageIncome": 48247,
    "publicTransportAvailability": "low",
    "latitude": 49.7365816,
    "longitude": 19.4856654
  },
  {
    "neighborhood": "Prairie Rose",
    "city": "Jaraguá do Sul",
    "averageAge": 25,
    "distanceFromCityCenter": 12.1,
    "averageIncome": 69482,
    "publicTransportAvailability": "high",
    "latitude": -26.4822209,
    "longitude": -49.073477
  },
  {
    "neighborhood": "Fallview",
    "city": "Mólos",
    "averageAge": 65,
    "distanceFromCityCenter": 58.2,
    "averageIncome": 64496,
    "publicTransportAvailability": "none",
    "latitude": 38.808984,
    "longitude": 22.6461855
  },
  {
    "neighborhood": "Lake View",
    "city": "Pingtian",
    "averageAge": 54,
    "distanceFromCityCenter": 46.8,
    "averageIncome": 50764,
    "publicTransportAvailability": "low",
    "latitude": 25.49872,
    "longitude": 119.790168
  },
  {
    "neighborhood": "Onsgard",
    "city": "Harjamukti",
    "averageAge": 23,
    "distanceFromCityCenter": 97.2,
    "averageIncome": 86486,
    "publicTransportAvailability": "medium",
    "latitude": -6.7533085,
    "longitude": 108.5522531
  },
  {
    "neighborhood": "Chive",
    "city": "Kembangarum",
    "averageAge": 45,
    "distanceFromCityCenter": 81.2,
    "averageIncome": 66656,
    "publicTransportAvailability": "low",
    "latitude": -6.9965948,
    "longitude": 110.3740754
  },
  {
    "neighborhood": "Norway Maple",
    "city": "Jiangkou",
    "averageAge": 66,
    "distanceFromCityCenter": 69.8,
    "averageIncome": 25227,
    "publicTransportAvailability": "low",
    "latitude": 27.69965,
    "longitude": 108.839557
  },
  {
    "neighborhood": "Buhler",
    "state": "BC",
    "city": "Pemberton",
    "averageAge": 43,
    "distanceFromCityCenter": 34.4,
    "averageIncome": 4651,
    "publicTransportAvailability": "none",
    "latitude": 50.31641,
    "longitude": -122.80273
  },
  {
    "neighborhood": "Springview",
    "city": "Drahichyn",
    "averageAge": 49,
    "distanceFromCityCenter": 44.4,
    "averageIncome": 20295,
    "publicTransportAvailability": "low",
    "latitude": 52.1930413,
    "longitude": 25.1471719
  },
  {
    "neighborhood": "Melby",
    "city": "Pitanga",
    "averageAge": 70,
    "distanceFromCityCenter": 33.6,
    "averageIncome": 89542,
    "publicTransportAvailability": "high",
    "latitude": -24.7592533,
    "longitude": -51.7601166
  },
  {
    "neighborhood": "Birchwood",
    "city": "Dobrich",
    "averageAge": 59,
    "distanceFromCityCenter": 23.8,
    "averageIncome": 28978,
    "publicTransportAvailability": "none",
    "latitude": 43.572786,
    "longitude": 27.8272802
  },
  {
    "neighborhood": "Reinke",
    "city": "Huai’an",
    "averageAge": 35,
    "distanceFromCityCenter": 25.5,
    "averageIncome": 35845,
    "publicTransportAvailability": "high",
    "latitude": 33.551052,
    "longitude": 119.113185
  },
  {
    "neighborhood": "Warbler",
    "city": "Huangcaotuo",
    "averageAge": 40,
    "distanceFromCityCenter": 5.5,
    "averageIncome": 50463,
    "publicTransportAvailability": "none",
    "latitude": 35.872664,
    "longitude": 120.04619
  },
  {
    "neighborhood": "Pawling",
    "city": "Kafr Nubl",
    "averageAge": 68,
    "distanceFromCityCenter": 20.9,
    "averageIncome": 48797,
    "publicTransportAvailability": "high",
    "latitude": 35.6139047,
    "longitude": 36.5607888
  },
  {
    "neighborhood": "Logan",
    "city": "Garies",
    "averageAge": 68,
    "distanceFromCityCenter": 33.8,
    "averageIncome": 13658,
    "publicTransportAvailability": "none",
    "latitude": -30.5652911,
    "longitude": 17.9904127
  },
  {
    "neighborhood": "Delladonna",
    "state": "10",
    "city": "Picoto",
    "averageAge": 55,
    "distanceFromCityCenter": 4.4,
    "averageIncome": 86288,
    "publicTransportAvailability": "medium",
    "latitude": 39.859131,
    "longitude": -8.8426989
  },
  {
    "neighborhood": "Cody",
    "state": "OH",
    "city": "Dayton",
    "averageAge": 53,
    "distanceFromCityCenter": 71.8,
    "averageIncome": 42287,
    "publicTransportAvailability": "medium",
    "latitude": 39.7434917,
    "longitude": -84.0854432
  },
  {
    "neighborhood": "Green",
    "city": "Ngerengere",
    "averageAge": 41,
    "distanceFromCityCenter": 38.5,
    "averageIncome": 99022,
    "publicTransportAvailability": "medium",
    "latitude": -6.7575785,
    "longitude": 38.131876
  },
  {
    "neighborhood": "Burrows",
    "city": "Tanjungbahagia",
    "averageAge": 49,
    "distanceFromCityCenter": 56.1,
    "averageIncome": 69127,
    "publicTransportAvailability": "low",
    "latitude": -6.1791624,
    "longitude": 107.0147985
  },
  {
    "neighborhood": "Fair Oaks",
    "city": "Yingpu",
    "averageAge": 25,
    "distanceFromCityCenter": 58.3,
    "averageIncome": 64098,
    "publicTransportAvailability": "none",
    "latitude": 31.259822,
    "longitude": 121.525727
  },
  {
    "neighborhood": "Bultman",
    "city": "Xinshui",
    "averageAge": 42,
    "distanceFromCityCenter": 26.0,
    "averageIncome": 23311,
    "publicTransportAvailability": "none",
    "latitude": 38.9680341,
    "longitude": 121.4703114
  },
  {
    "neighborhood": "South",
    "city": "Boituva",
    "averageAge": 35,
    "distanceFromCityCenter": 49.3,
    "averageIncome": 42543,
    "publicTransportAvailability": "high",
    "latitude": -23.2860188,
    "longitude": -47.6790285
  },
  {
    "neighborhood": "Thompson",
    "city": "Lokossa",
    "averageAge": 39,
    "distanceFromCityCenter": 38.0,
    "averageIncome": 18689,
    "publicTransportAvailability": "medium",
    "latitude": 6.6448093,
    "longitude": 1.7198215
  },
  {
    "neighborhood": "Mifflin",
    "city": "Bacnor East",
    "averageAge": 66,
    "distanceFromCityCenter": 72.3,
    "averageIncome": 72723,
    "publicTransportAvailability": "medium",
    "latitude": 17.0521348,
    "longitude": 121.7050399
  },
  {
    "neighborhood": "Shelley",
    "city": "Mentoro Wetan",
    "averageAge": 49,
    "distanceFromCityCenter": 15.8,
    "averageIncome": 72722,
    "publicTransportAvailability": "high",
    "latitude": -6.6993,
    "longitude": 111.4904
  },
  {
    "neighborhood": "Surrey",
    "city": "Manzherok",
    "averageAge": 61,
    "distanceFromCityCenter": 7.2,
    "averageIncome": 34341,
    "publicTransportAvailability": "high",
    "latitude": 51.8321777,
    "longitude": 85.7788422
  },
  {
    "neighborhood": "La Follette",
    "city": "Jequitinhonha",
    "averageAge": 29,
    "distanceFromCityCenter": 80.7,
    "averageIncome": 8086,
    "publicTransportAvailability": "none",
    "latitude": -16.4510937,
    "longitude": -41.0394028
  },
  {
    "neighborhood": "Golf",
    "city": "Sankoutang",
    "averageAge": 22,
    "distanceFromCityCenter": 74.8,
    "averageIncome": 2542,
    "publicTransportAvailability": "high",
    "latitude": 26.419602,
    "longitude": 111.8132691
  },
  {
    "neighborhood": "Green Ridge",
    "city": "Souflí",
    "averageAge": 23,
    "distanceFromCityCenter": 8.5,
    "averageIncome": 20385,
    "publicTransportAvailability": "medium",
    "latitude": 41.1943451,
    "longitude": 26.2992566
  },
  {
    "neighborhood": "School",
    "state": "DC",
    "city": "Washington",
    "averageAge": 25,
    "distanceFromCityCenter": 1.3,
    "averageIncome": 96084,
    "publicTransportAvailability": "high",
    "latitude": 38.8943618,
    "longitude": -77.04997
  },
  {
    "neighborhood": "Vera",
    "city": "Yuzui",
    "averageAge": 46,
    "distanceFromCityCenter": 77.5,
    "averageIncome": 59677,
    "publicTransportAvailability": "low",
    "latitude": 31.845809,
    "longitude": 114.374025
  },
  {
    "neighborhood": "Service",
    "city": "Salamá",
    "averageAge": 61,
    "distanceFromCityCenter": 12.5,
    "averageIncome": 95373,
    "publicTransportAvailability": "none",
    "latitude": 14.8288248,
    "longitude": -86.5728785
  },
  {
    "neighborhood": "Sutteridge",
    "city": "Gose",
    "averageAge": 60,
    "distanceFromCityCenter": 33.5,
    "averageIncome": 62203,
    "publicTransportAvailability": "high",
    "latitude": 34.2565473,
    "longitude": 135.4765527
  },
  {
    "neighborhood": "Starling",
    "city": "Nueva Guadalupe",
    "averageAge": 46,
    "distanceFromCityCenter": 37.7,
    "averageIncome": 73363,
    "publicTransportAvailability": "high",
    "latitude": 13.5353957,
    "longitude": -88.3506468
  },
  {
    "neighborhood": "Dorton",
    "city": "Kihurio",
    "averageAge": 65,
    "distanceFromCityCenter": 78.6,
    "averageIncome": 77818,
    "publicTransportAvailability": "low",
    "latitude": -4.4654444,
    "longitude": 38.0750461
  },
  {
    "neighborhood": "Northport",
    "city": "Kalidung",
    "averageAge": 19,
    "distanceFromCityCenter": 77.1,
    "averageIncome": 18438,
    "publicTransportAvailability": "high",
    "latitude": -7.1913,
    "longitude": 107.8902
  },
  {
    "neighborhood": "Arapahoe",
    "city": "Lotoshino",
    "averageAge": 61,
    "distanceFromCityCenter": 63.4,
    "averageIncome": 25586,
    "publicTransportAvailability": "none",
    "latitude": 56.227929,
    "longitude": 35.6372213
  },
  {
    "neighborhood": "Marcy",
    "city": "Kafyr-Kumukh",
    "averageAge": 60,
    "distanceFromCityCenter": 30.2,
    "averageIncome": 74400,
    "publicTransportAvailability": "medium",
    "latitude": 42.854367,
    "longitude": 47.188097
  },
  {
    "neighborhood": "Summer Ridge",
    "city": "Girsereng",
    "averageAge": 61,
    "distanceFromCityCenter": 26.9,
    "averageIncome": 61699,
    "publicTransportAvailability": "high",
    "latitude": -6.1513815,
    "longitude": 106.8915008
  },
  {
    "neighborhood": "Dapin",
    "city": "Andradina",
    "averageAge": 46,
    "distanceFromCityCenter": 75.4,
    "averageIncome": 96678,
    "publicTransportAvailability": "medium",
    "latitude": -20.9096549,
    "longitude": -51.3860303
  },
  {
    "neighborhood": "Lillian",
    "city": "Floriana",
    "averageAge": 68,
    "distanceFromCityCenter": 36.7,
    "averageIncome": 20838,
    "publicTransportAvailability": "medium",
    "latitude": 35.892152,
    "longitude": 14.5075482
  },
  {
    "neighborhood": "Stuart",
    "city": "Zubří",
    "averageAge": 19,
    "distanceFromCityCenter": 55.8,
    "averageIncome": 25117,
    "publicTransportAvailability": "medium",
    "latitude": 49.4940668,
    "longitude": 18.0992378
  },
  {
    "neighborhood": "Sycamore",
    "city": "Barreiros",
    "averageAge": 69,
    "distanceFromCityCenter": 38.4,
    "averageIncome": 41603,
    "publicTransportAvailability": "high",
    "latitude": -8.8325814,
    "longitude": -35.2807624
  },
  {
    "neighborhood": "Barnett",
    "state": "17",
    "city": "Peso da Régua",
    "averageAge": 32,
    "distanceFromCityCenter": 57.0,
    "averageIncome": 60632,
    "publicTransportAvailability": "low",
    "latitude": 41.1645867,
    "longitude": -7.7937927
  },
  {
    "neighborhood": "Roth",
    "city": "Rechitsy",
    "averageAge": 64,
    "distanceFromCityCenter": 15.3,
    "averageIncome": 8215,
    "publicTransportAvailability": "low",
    "latitude": 55.59754,
    "longitude": 38.47134
  },
  {
    "neighborhood": "Grasskamp",
    "city": "La‘l",
    "averageAge": 34,
    "distanceFromCityCenter": 0.9,
    "averageIncome": 76435,
    "publicTransportAvailability": "medium",
    "latitude": 34.4822519,
    "longitude": 66.2724183
  },
  {
    "neighborhood": "Northland",
    "city": "Calvinia",
    "averageAge": 52,
    "distanceFromCityCenter": 55.4,
    "averageIncome": 4394,
    "publicTransportAvailability": "high",
    "latitude": -31.48342,
    "longitude": 19.7582
  },
  {
    "neighborhood": "Linden",
    "city": "Daming",
    "averageAge": 27,
    "distanceFromCityCenter": 14.9,
    "averageIncome": 51516,
    "publicTransportAvailability": "none",
    "latitude": 36.285616,
    "longitude": 115.147814
  },
  {
    "neighborhood": "Stephen",
    "city": "Santiago",
    "averageAge": 27,
    "distanceFromCityCenter": 28.4,
    "averageIncome": 72327,
    "publicTransportAvailability": "none",
    "latitude": 14.5672317,
    "longitude": 121.0298199
  },
  {
    "neighborhood": "Nelson",
    "city": "El Tambo",
    "averageAge": 31,
    "distanceFromCityCenter": 53.4,
    "averageIncome": 22366,
    "publicTransportAvailability": "medium",
    "latitude": -12.1253006,
    "longitude": -77.0270549
  },
  {
    "neighborhood": "Susan",
    "city": "Shuigou",
    "averageAge": 58,
    "distanceFromCityCenter": 85.2,
    "averageIncome": 18310,
    "publicTransportAvailability": "high",
    "latitude": 37.1212974,
    "longitude": 79.9088564
  },
  {
    "neighborhood": "West",
    "city": "Koszarawa",
    "averageAge": 23,
    "distanceFromCityCenter": 42.2,
    "averageIncome": 5974,
    "publicTransportAvailability": "low",
    "latitude": 49.6574026,
    "longitude": 19.4151148
  },
  {
    "neighborhood": "Hooker",
    "city": "Lushnjë",
    "averageAge": 58,
    "distanceFromCityCenter": 9.7,
    "averageIncome": 79434,
    "publicTransportAvailability": "high",
    "latitude": 40.941983,
    "longitude": 19.6996428
  },
  {
    "neighborhood": "Loeprich",
    "city": "Santa Cruz",
    "averageAge": 43,
    "distanceFromCityCenter": 47.9,
    "averageIncome": 81619,
    "publicTransportAvailability": "none",
    "latitude": 13.0748879,
    "longitude": 120.7213113
  },
  {
    "neighborhood": "Nova",
    "city": "Quípama",
    "averageAge": 54,
    "distanceFromCityCenter": 65.8,
    "averageIncome": 20452,
    "publicTransportAvailability": "none",
    "latitude": 5.586693,
    "longitude": -74.2296713
  },
  {
    "neighborhood": "Tennessee",
    "city": "Sale",
    "averageAge": 19,
    "distanceFromCityCenter": 54.6,
    "averageIncome": 56812,
    "publicTransportAvailability": "medium",
    "latitude": -6.85247,
    "longitude": 111.5587544
  },
  {
    "neighborhood": "Sachtjen",
    "city": "Mat-i",
    "averageAge": 41,
    "distanceFromCityCenter": 72.1,
    "averageIncome": 14850,
    "publicTransportAvailability": "low",
    "latitude": 8.1142739,
    "longitude": 123.9026495
  },
  {
    "neighborhood": "Basil",
    "city": "Solomenskoye",
    "averageAge": 21,
    "distanceFromCityCenter": 47.9,
    "averageIncome": 26890,
    "publicTransportAvailability": "high",
    "latitude": 61.8319048,
    "longitude": 34.3054029
  },
  {
    "neighborhood": "Manufacturers",
    "city": "Mvomero",
    "averageAge": 64,
    "distanceFromCityCenter": 83.6,
    "averageIncome": 6406,
    "publicTransportAvailability": "none",
    "latitude": -6.235617,
    "longitude": 38.693748
  },
  {
    "neighborhood": "Summerview",
    "city": "Kulia Village",
    "averageAge": 28,
    "distanceFromCityCenter": 70.6,
    "averageIncome": 95831,
    "publicTransportAvailability": "medium",
    "latitude": -6.10819,
    "longitude": 177.33393
  },
  {
    "neighborhood": "Mosinee",
    "city": "Cárdenas",
    "averageAge": 21,
    "distanceFromCityCenter": 74.6,
    "averageIncome": 76712,
    "publicTransportAvailability": "none",
    "latitude": 23.0365513,
    "longitude": -81.2133262
  },
  {
    "neighborhood": "Sutteridge",
    "city": "Songqiao",
    "averageAge": 67,
    "distanceFromCityCenter": 33.6,
    "averageIncome": 90540,
    "publicTransportAvailability": "none",
    "latitude": 27.4583303,
    "longitude": 120.3078508
  },
  {
    "neighborhood": "Lien",
    "city": "Hukeng",
    "averageAge": 34,
    "distanceFromCityCenter": 64.3,
    "averageIncome": 70165,
    "publicTransportAvailability": "none",
    "latitude": 24.646975,
    "longitude": 116.951541
  },
  {
    "neighborhood": "Lillian",
    "city": "Wahai",
    "averageAge": 63,
    "distanceFromCityCenter": 70.9,
    "averageIncome": 42526,
    "publicTransportAvailability": "none",
    "latitude": -2.804472,
    "longitude": 129.484497
  },
  {
    "neighborhood": "Raven",
    "city": "Açucena",
    "averageAge": 56,
    "distanceFromCityCenter": 56.3,
    "averageIncome": 83934,
    "publicTransportAvailability": "none",
    "latitude": -19.0764128,
    "longitude": -42.5478901
  },
  {
    "neighborhood": "1st",
    "state": "NSW",
    "city": "Australia Square",
    "averageAge": 23,
    "distanceFromCityCenter": 92.5,
    "averageIncome": 78468,
    "publicTransportAvailability": "high",
    "latitude": -33.8651294,
    "longitude": 151.2078882
  },
  {
    "neighborhood": "Sheridan",
    "city": "Novo Cruzeiro",
    "averageAge": 67,
    "distanceFromCityCenter": 65.4,
    "averageIncome": 2241,
    "publicTransportAvailability": "high",
    "latitude": -17.4328946,
    "longitude": -41.9989718
  },
  {
    "neighborhood": "Stone Corner",
    "city": "Krasnyy Oktyabr’",
    "averageAge": 65,
    "distanceFromCityCenter": 84.4,
    "averageIncome": 84910,
    "publicTransportAvailability": "high",
    "latitude": 56.1244724,
    "longitude": 38.8768972
  },
  {
    "neighborhood": "Laurel",
    "city": "Piritiba",
    "averageAge": 62,
    "distanceFromCityCenter": 26.3,
    "averageIncome": 70550,
    "publicTransportAvailability": "medium",
    "latitude": -11.7088712,
    "longitude": -40.5940565
  },
  {
    "neighborhood": "Anzinger",
    "state": "CL",
    "city": "Leon",
    "averageAge": 24,
    "distanceFromCityCenter": 12.4,
    "averageIncome": 42529,
    "publicTransportAvailability": "medium",
    "latitude": 42.660251,
    "longitude": -5.5722297
  },
  {
    "neighborhood": "Bashford",
    "city": "Bella Vista",
    "averageAge": 38,
    "distanceFromCityCenter": 38.4,
    "averageIncome": 1170,
    "publicTransportAvailability": "high",
    "latitude": -27.0501654,
    "longitude": -55.5746294
  },
  {
    "neighborhood": "Washington",
    "city": "Nagahama",
    "averageAge": 19,
    "distanceFromCityCenter": 7.2,
    "averageIncome": 34690,
    "publicTransportAvailability": "none",
    "latitude": 37.3032401,
    "longitude": 139.3751118
  },
  {
    "neighborhood": "Forest Run",
    "city": "Poços de Caldas",
    "averageAge": 42,
    "distanceFromCityCenter": 18.6,
    "averageIncome": 61352,
    "publicTransportAvailability": "medium",
    "latitude": -21.7853787,
    "longitude": -46.5619303
  },
  {
    "neighborhood": "Maple Wood",
    "city": "Bungtiang Barat",
    "averageAge": 57,
    "distanceFromCityCenter": 95.7,
    "averageIncome": 7213,
    "publicTransportAvailability": "none",
    "latitude": -8.7367925,
    "longitude": 116.4872482
  },
  {
    "neighborhood": "Burrows",
    "city": "Cinangka",
    "averageAge": 54,
    "distanceFromCityCenter": 44.1,
    "averageIncome": 61068,
    "publicTransportAvailability": "high",
    "latitude": -6.3651357,
    "longitude": 106.7617984
  },
  {
    "neighborhood": "Jenna",
    "city": "Lebu",
    "averageAge": 57,
    "distanceFromCityCenter": 11.3,
    "averageIncome": 86821,
    "publicTransportAvailability": "none",
    "latitude": -37.6097143,
    "longitude": -73.6483294
  },
  {
    "neighborhood": "Pepper Wood",
    "city": "Iracemápolis",
    "averageAge": 21,
    "distanceFromCityCenter": 30.7,
    "averageIncome": 59250,
    "publicTransportAvailability": "medium",
    "latitude": -22.5899119,
    "longitude": -47.5177229
  },
  {
    "neighborhood": "Buhler",
    "city": "Jubaoshan",
    "averageAge": 47,
    "distanceFromCityCenter": 75.6,
    "averageIncome": 55418,
    "publicTransportAvailability": "medium",
    "latitude": 28.14932,
    "longitude": 105.497935
  },
  {
    "neighborhood": "Ludington",
    "city": "Elele",
    "averageAge": 44,
    "distanceFromCityCenter": 30.4,
    "averageIncome": 29711,
    "publicTransportAvailability": "none",
    "latitude": 5.1018417,
    "longitude": 6.8190224
  },
  {
    "neighborhood": "Mockingbird",
    "state": "A5",
    "city": "Ajaccio",
    "averageAge": 34,
    "distanceFromCityCenter": 69.1,
    "averageIncome": 37648,
    "publicTransportAvailability": "none",
    "latitude": 46.6473105,
    "longitude": 0.813275
  },
  {
    "neighborhood": "Laurel",
    "city": "Yangzhou",
    "averageAge": 68,
    "distanceFromCityCenter": 62.0,
    "averageIncome": 4248,
    "publicTransportAvailability": "low",
    "latitude": 32.394209,
    "longitude": 119.412939
  },
  {
    "neighborhood": "Gerald",
    "state": "06",
    "city": "Casal das Figueiras",
    "averageAge": 70,
    "distanceFromCityCenter": 80.5,
    "averageIncome": 33126,
    "publicTransportAvailability": "low",
    "latitude": 40.2462817,
    "longitude": -8.5659855
  },
  {
    "neighborhood": "Lotheville",
    "city": "Nandu",
    "averageAge": 25,
    "distanceFromCityCenter": 65.7,
    "averageIncome": 41212,
    "publicTransportAvailability": "none",
    "latitude": 24.839129,
    "longitude": 105.417397
  },
  {
    "neighborhood": "Union",
    "city": "Pilluana",
    "averageAge": 66,
    "distanceFromCityCenter": 79.0,
    "averageIncome": 23025,
    "publicTransportAvailability": "high",
    "latitude": -6.7764491,
    "longitude": -76.2899071
  },
  {
    "neighborhood": "Mayer",
    "city": "Srebrenica",
    "averageAge": 22,
    "distanceFromCityCenter": 23.7,
    "averageIncome": 10837,
    "publicTransportAvailability": "low",
    "latitude": 44.1039762,
    "longitude": 19.2997218
  },
  {
    "neighborhood": "Upham",
    "state": "A1",
    "city": "Mâcon",
    "averageAge": 45,
    "distanceFromCityCenter": 32.6,
    "averageIncome": 24473,
    "publicTransportAvailability": "none",
    "latitude": 46.301744,
    "longitude": 4.797057
  },
  {
    "neighborhood": "Golf View",
    "city": "Banjar Kubu",
    "averageAge": 38,
    "distanceFromCityCenter": 73.0,
    "averageIncome": 98434,
    "publicTransportAvailability": "none",
    "latitude": -8.25944,
    "longitude": 115.566002
  },
  {
    "neighborhood": "Mccormick",
    "city": "Huibu",
    "averageAge": 70,
    "distanceFromCityCenter": 71.5,
    "averageIncome": 37844,
    "publicTransportAvailability": "none",
    "latitude": 35.408609,
    "longitude": 117.146885
  },
  {
    "neighborhood": "Mosinee",
    "state": "TX",
    "city": "Houston",
    "averageAge": 62,
    "distanceFromCityCenter": 44.5,
    "averageIncome": 9726,
    "publicTransportAvailability": "none",
    "latitude": 29.9601879,
    "longitude": -95.5587992
  },
  {
    "neighborhood": "Mendota",
    "city": "Wan Yai",
    "averageAge": 20,
    "distanceFromCityCenter": 4.0,
    "averageIncome": 80812,
    "publicTransportAvailability": "medium",
    "latitude": 16.7137921,
    "longitude": 104.7345937
  },
  {
    "neighborhood": "2nd",
    "city": "Leping",
    "averageAge": 37,
    "distanceFromCityCenter": 57.7,
    "averageIncome": 71838,
    "publicTransportAvailability": "none",
    "latitude": 28.97844,
    "longitude": 117.151796
  },
  {
    "neighborhood": "Bluestem",
    "city": "Cavinti",
    "averageAge": 48,
    "distanceFromCityCenter": 30.3,
    "averageIncome": 24686,
    "publicTransportAvailability": "high",
    "latitude": 14.262652,
    "longitude": 121.498915
  },
  {
    "neighborhood": "Linden",
    "city": "Lintingkou",
    "averageAge": 46,
    "distanceFromCityCenter": 95.1,
    "averageIncome": 20277,
    "publicTransportAvailability": "none",
    "latitude": 39.635068,
    "longitude": 117.515189
  },
  {
    "neighborhood": "Rigney",
    "city": "Lianhe",
    "averageAge": 35,
    "distanceFromCityCenter": 47.9,
    "averageIncome": 19866,
    "publicTransportAvailability": "medium",
    "latitude": 36.608183,
    "longitude": 101.808485
  },
  {
    "neighborhood": "Fuller",
    "city": "Foča",
    "averageAge": 63,
    "distanceFromCityCenter": 68.3,
    "averageIncome": 27487,
    "publicTransportAvailability": "high",
    "latitude": 43.505478,
    "longitude": 18.7772645
  },
  {
    "neighborhood": "Autumn Leaf",
    "city": "Mozirje",
    "averageAge": 29,
    "distanceFromCityCenter": 48.6,
    "averageIncome": 56223,
    "publicTransportAvailability": "medium",
    "latitude": 46.3392772,
    "longitude": 14.9599807
  },
  {
    "neighborhood": "Vera",
    "state": "NL",
    "city": "Conception Bay South",
    "averageAge": 48,
    "distanceFromCityCenter": 96.2,
    "averageIncome": 5762,
    "publicTransportAvailability": "none",
    "latitude": 47.5083178,
    "longitude": -52.9940605
  },
  {
    "neighborhood": "Novick",
    "city": "Nova Cruz",
    "averageAge": 49,
    "distanceFromCityCenter": 47.7,
    "averageIncome": 35977,
    "publicTransportAvailability": "medium",
    "latitude": -6.4472391,
    "longitude": -35.4124355
  },
  {
    "neighborhood": "Oak Valley",
    "city": "Digkilaan",
    "averageAge": 63,
    "distanceFromCityCenter": 14.2,
    "averageIncome": 76966,
    "publicTransportAvailability": "high",
    "latitude": 8.2435239,
    "longitude": 124.3401302
  },
  {
    "neighborhood": "Vahlen",
    "city": "Bankaw",
    "averageAge": 44,
    "distanceFromCityCenter": 26.6,
    "averageIncome": 13417,
    "publicTransportAvailability": "low",
    "latitude": 14.7035936,
    "longitude": 121.0493442
  },
  {
    "neighborhood": "Gulseth",
    "city": "Basak",
    "averageAge": 23,
    "distanceFromCityCenter": 30.5,
    "averageIncome": 32769,
    "publicTransportAvailability": "none",
    "latitude": 10.2947384,
    "longitude": 123.9595164
  },
  {
    "neighborhood": "Hagan",
    "city": "Hiji",
    "averageAge": 33,
    "distanceFromCityCenter": 16.1,
    "averageIncome": 53964,
    "publicTransportAvailability": "none",
    "latitude": 26.7255231,
    "longitude": 128.1765722
  },
  {
    "neighborhood": "Green",
    "city": "Łobez",
    "averageAge": 63,
    "distanceFromCityCenter": 93.1,
    "averageIncome": 1600,
    "publicTransportAvailability": "high",
    "latitude": 53.63918,
    "longitude": 15.62129
  },
  {
    "neighborhood": "Merrick",
    "city": "Maddarulug Norte",
    "averageAge": 44,
    "distanceFromCityCenter": 59.0,
    "averageIncome": 87232,
    "publicTransportAvailability": "medium",
    "latitude": 17.5358596,
    "longitude": 121.6851715
  },
  {
    "neighborhood": "School",
    "city": "Jiufang",
    "averageAge": 37,
    "distanceFromCityCenter": 98.6,
    "averageIncome": 51111,
    "publicTransportAvailability": "medium",
    "latitude": 30.698901,
    "longitude": 103.998074
  },
  {
    "neighborhood": "Kim",
    "city": "‘Aşīrah al Qiblīyah",
    "averageAge": 57,
    "distanceFromCityCenter": 25.5,
    "averageIncome": 79753,
    "publicTransportAvailability": "none",
    "latitude": 32.17842,
    "longitude": 35.21569
  },
  {
    "neighborhood": "Gale",
    "state": "FL",
    "city": "Pensacola",
    "averageAge": 58,
    "distanceFromCityCenter": 77.4,
    "averageIncome": 53467,
    "publicTransportAvailability": "high",
    "latitude": 30.475663,
    "longitude": -87.193563
  },
  {
    "neighborhood": "Mariners Cove",
    "city": "Serh",
    "averageAge": 51,
    "distanceFromCityCenter": 22.3,
    "averageIncome": 66706,
    "publicTransportAvailability": "low",
    "latitude": 20.019055,
    "longitude": 110.2889917
  },
  {
    "neighborhood": "Morning",
    "city": "Tejen",
    "averageAge": 54,
    "distanceFromCityCenter": 5.3,
    "averageIncome": 17315,
    "publicTransportAvailability": "low",
    "latitude": 37.3743044,
    "longitude": 60.5008307
  },
  {
    "neighborhood": "Warrior",
    "city": "Songying",
    "averageAge": 31,
    "distanceFromCityCenter": 61.9,
    "averageIncome": 6946,
    "publicTransportAvailability": "high",
    "latitude": 37.433963,
    "longitude": 118.674614
  },
  {
    "neighborhood": "Lotheville",
    "city": "Néa Smýrni",
    "averageAge": 65,
    "distanceFromCityCenter": 8.9,
    "averageIncome": 57975,
    "publicTransportAvailability": "high",
    "latitude": 37.9442881,
    "longitude": 23.7117556
  },
  {
    "neighborhood": "Hermina",
    "state": "W",
    "city": "Falun",
    "averageAge": 20,
    "distanceFromCityCenter": 15.6,
    "averageIncome": 98334,
    "publicTransportAvailability": "high",
    "latitude": 60.6065466,
    "longitude": 15.6257125
  },
  {
    "neighborhood": "Schlimgen",
    "city": "Quận Mười",
    "averageAge": 70,
    "distanceFromCityCenter": 86.4,
    "averageIncome": 62990,
    "publicTransportAvailability": "high",
    "latitude": 10.7745965,
    "longitude": 106.6679542
  },
  {
    "neighborhood": "Utah",
    "city": "Rancapeundey",
    "averageAge": 51,
    "distanceFromCityCenter": 41.5,
    "averageIncome": 67997,
    "publicTransportAvailability": "high",
    "latitude": -7.3314,
    "longitude": 108.0665
  },
  {
    "neighborhood": "Dottie",
    "city": "Yaozhou",
    "averageAge": 46,
    "distanceFromCityCenter": 10.3,
    "averageIncome": 69696,
    "publicTransportAvailability": "none",
    "latitude": 34.909793,
    "longitude": 108.980102
  },
  {
    "neighborhood": "Ridgeview",
    "city": "Yasenskaya",
    "averageAge": 59,
    "distanceFromCityCenter": 35.0,
    "averageIncome": 4074,
    "publicTransportAvailability": "none",
    "latitude": 46.3611841,
    "longitude": 38.2725015
  },
  {
    "neighborhood": "Barby",
    "city": "Bajiao",
    "averageAge": 54,
    "distanceFromCityCenter": 36.4,
    "averageIncome": 80639,
    "publicTransportAvailability": "medium",
    "latitude": 19.233277,
    "longitude": 109.412626
  },
  {
    "neighborhood": "Elmside",
    "city": "Ambian",
    "averageAge": 30,
    "distanceFromCityCenter": 54.7,
    "averageIncome": 57496,
    "publicTransportAvailability": "medium",
    "latitude": -8.6742387,
    "longitude": 115.1647919
  },
  {
    "neighborhood": "Delaware",
    "city": "Orleans",
    "averageAge": 55,
    "distanceFromCityCenter": 79.9,
    "averageIncome": 89700,
    "publicTransportAvailability": "none",
    "latitude": -28.3031653,
    "longitude": -49.3450112
  },
  {
    "neighborhood": "Fallview",
    "city": "Tunggar",
    "averageAge": 42,
    "distanceFromCityCenter": 49.5,
    "averageIncome": 68459,
    "publicTransportAvailability": "low",
    "latitude": 5.3347,
    "longitude": 103.1358
  },
  {
    "neighborhood": "Morning",
    "state": "13",
    "city": "Besteiros",
    "averageAge": 31,
    "distanceFromCityCenter": 22.6,
    "averageIncome": 58466,
    "publicTransportAvailability": "none",
    "latitude": 41.2263185,
    "longitude": -8.344485
  },
  {
    "neighborhood": "Butternut",
    "city": "New Washington",
    "averageAge": 25,
    "distanceFromCityCenter": 33.0,
    "averageIncome": 85374,
    "publicTransportAvailability": "low",
    "latitude": 11.6494676,
    "longitude": 122.4318981
  },
  {
    "neighborhood": "Independence",
    "city": "Ma’an",
    "averageAge": 58,
    "distanceFromCityCenter": 84.2,
    "averageIncome": 24836,
    "publicTransportAvailability": "none",
    "latitude": 30.145729,
    "longitude": 120.589457
  },
  {
    "neighborhood": "Canary",
    "state": "GF",
    "city": "Kourou",
    "averageAge": 68,
    "distanceFromCityCenter": 81.8,
    "averageIncome": 18945,
    "publicTransportAvailability": "medium",
    "latitude": 5.1677581,
    "longitude": -52.6449937
  },
  {
    "neighborhood": "Transport",
    "city": "Severka",
    "averageAge": 53,
    "distanceFromCityCenter": 93.4,
    "averageIncome": 70825,
    "publicTransportAvailability": "none",
    "latitude": 56.8674893,
    "longitude": 60.2882554
  },
  {
    "neighborhood": "Bultman",
    "city": "Níkaia",
    "averageAge": 35,
    "distanceFromCityCenter": 75.0,
    "averageIncome": 75450,
    "publicTransportAvailability": "high",
    "latitude": 37.9746194,
    "longitude": 23.6412944
  },
  {
    "neighborhood": "Monterey",
    "state": "DC",
    "city": "Washington",
    "averageAge": 50,
    "distanceFromCityCenter": 1.4,
    "averageIncome": 56140,
    "publicTransportAvailability": "high",
    "latitude": 38.92,
    "longitude": -76.99
  },
  {
    "neighborhood": "Butterfield",
    "city": "Sanhe",
    "averageAge": 69,
    "distanceFromCityCenter": 54.6,
    "averageIncome": 81304,
    "publicTransportAvailability": "high",
    "latitude": 39.982718,
    "longitude": 117.078294
  },
  {
    "neighborhood": "Saint Paul",
    "city": "Shiye",
    "averageAge": 50,
    "distanceFromCityCenter": 82.8,
    "averageIncome": 44569,
    "publicTransportAvailability": "high",
    "latitude": 32.629398,
    "longitude": 110.798266
  },
  {
    "neighborhood": "Anhalt",
    "city": "Alta Gracia",
    "averageAge": 31,
    "distanceFromCityCenter": 20.8,
    "averageIncome": 81478,
    "publicTransportAvailability": "high",
    "latitude": -34.6104702,
    "longitude": -58.5278307
  },
  {
    "neighborhood": "Carpenter",
    "state": "04",
    "city": "Vila Flor",
    "averageAge": 22,
    "distanceFromCityCenter": 6.1,
    "averageIncome": 68644,
    "publicTransportAvailability": "low",
    "latitude": 41.3088508,
    "longitude": -7.1616883
  },
  {
    "neighborhood": "Onsgard",
    "city": "Balud",
    "averageAge": 55,
    "distanceFromCityCenter": 40.7,
    "averageIncome": 40657,
    "publicTransportAvailability": "low",
    "latitude": 14.6733187,
    "longitude": 121.0601862
  },
  {
    "neighborhood": "Del Mar",
    "city": "Kuangshan",
    "averageAge": 21,
    "distanceFromCityCenter": 48.6,
    "averageIncome": 27054,
    "publicTransportAvailability": "medium",
    "latitude": 27.780089,
    "longitude": 111.502705
  },
  {
    "neighborhood": "Banding",
    "city": "Tongjiang",
    "averageAge": 57,
    "distanceFromCityCenter": 7.2,
    "averageIncome": 25450,
    "publicTransportAvailability": "low",
    "latitude": 47.642707,
    "longitude": 132.510919
  },
  {
    "neighborhood": "Fallview",
    "city": "Jinzhou",
    "averageAge": 44,
    "distanceFromCityCenter": 95.4,
    "averageIncome": 59122,
    "publicTransportAvailability": "medium",
    "latitude": 41.095685,
    "longitude": 121.1268459
  },
  {
    "neighborhood": "Erie",
    "state": "TAS",
    "city": "Launceston",
    "averageAge": 58,
    "distanceFromCityCenter": 2.5,
    "averageIncome": 43989,
    "publicTransportAvailability": "medium",
    "latitude": -41.4332215,
    "longitude": 147.1440875
  },
  {
    "neighborhood": "Michigan",
    "city": "Drawsko Pomorskie",
    "averageAge": 27,
    "distanceFromCityCenter": 86.2,
    "averageIncome": 38215,
    "publicTransportAvailability": "high",
    "latitude": 53.5316199,
    "longitude": 15.8138245
  },
  {
    "neighborhood": "Shopko",
    "city": "Solntsevo",
    "averageAge": 23,
    "distanceFromCityCenter": 16.9,
    "averageIncome": 70047,
    "publicTransportAvailability": "none",
    "latitude": 55.650711,
    "longitude": 37.39423
  },
  {
    "neighborhood": "Ronald Regan",
    "city": "Jiujiang",
    "averageAge": 41,
    "distanceFromCityCenter": 98.7,
    "averageIncome": 14660,
    "publicTransportAvailability": "medium",
    "latitude": 29.705077,
    "longitude": 116.00193
  },
  {
    "neighborhood": "Village",
    "city": "Mauhao",
    "averageAge": 18,
    "distanceFromCityCenter": 8.5,
    "averageIncome": 62771,
    "publicTransportAvailability": "low",
    "latitude": 15.1487342,
    "longitude": 120.5849792
  },
  {
    "neighborhood": "Briar Crest",
    "state": "13",
    "city": "Aldeias de Cima",
    "averageAge": 61,
    "distanceFromCityCenter": 27.7,
    "averageIncome": 1443,
    "publicTransportAvailability": "none",
    "latitude": 41.3269373,
    "longitude": -8.570312
  },
  {
    "neighborhood": "Clyde Gallagher",
    "city": "Murillo",
    "averageAge": 56,
    "distanceFromCityCenter": 26.8,
    "averageIncome": 53261,
    "publicTransportAvailability": "medium",
    "latitude": 4.874181,
    "longitude": -75.170429
  },
  {
    "neighborhood": "Memorial",
    "city": "Qiaotou",
    "averageAge": 23,
    "distanceFromCityCenter": 46.4,
    "averageIncome": 54876,
    "publicTransportAvailability": "low",
    "latitude": 28.168408,
    "longitude": 120.482198
  },
  {
    "neighborhood": "Mifflin",
    "state": "01",
    "city": "Anadia",
    "averageAge": 21,
    "distanceFromCityCenter": 76.4,
    "averageIncome": 1358,
    "publicTransportAvailability": "high",
    "latitude": 40.4414068,
    "longitude": -8.4396618
  },
  {
    "neighborhood": "Messerschmidt",
    "city": "Bolgar",
    "averageAge": 44,
    "distanceFromCityCenter": 20.9,
    "averageIncome": 64443,
    "publicTransportAvailability": "medium",
    "latitude": 54.9670821,
    "longitude": 49.0342414
  },
  {
    "neighborhood": "Talisman",
    "city": "San Ignacio",
    "averageAge": 30,
    "distanceFromCityCenter": 24.7,
    "averageIncome": 7134,
    "publicTransportAvailability": "none",
    "latitude": 14.6546241,
    "longitude": -87.0399404
  },
  {
    "neighborhood": "Loftsgordon",
    "state": "17",
    "city": "Portela",
    "averageAge": 18,
    "distanceFromCityCenter": 53.8,
    "averageIncome": 75806,
    "publicTransportAvailability": "medium",
    "latitude": 41.1604713,
    "longitude": -7.7452871
  },
  {
    "neighborhood": "Harper",
    "state": "IN",
    "city": "Bloomington",
    "averageAge": 68,
    "distanceFromCityCenter": 40.5,
    "averageIncome": 17519,
    "publicTransportAvailability": "none",
    "latitude": 39.1714266,
    "longitude": -86.5186022
  },
  {
    "neighborhood": "Lunder",
    "city": "Huibu",
    "averageAge": 68,
    "distanceFromCityCenter": 58.1,
    "averageIncome": 69245,
    "publicTransportAvailability": "medium",
    "latitude": 35.408609,
    "longitude": 117.146885
  },
  {
    "neighborhood": "Eastwood",
    "state": "B8",
    "city": "Nice",
    "averageAge": 59,
    "distanceFromCityCenter": 68.3,
    "averageIncome": 79639,
    "publicTransportAvailability": "high",
    "latitude": 43.6953508,
    "longitude": 7.2559678
  },
  {
    "neighborhood": "Thierer",
    "city": "Metsamor",
    "averageAge": 47,
    "distanceFromCityCenter": 44.3,
    "averageIncome": 49563,
    "publicTransportAvailability": "high",
    "latitude": 40.1427498,
    "longitude": 44.1241666
  },
  {
    "neighborhood": "Lotheville",
    "state": "QC",
    "city": "Victoriaville",
    "averageAge": 36,
    "distanceFromCityCenter": 16.3,
    "averageIncome": 53178,
    "publicTransportAvailability": "high",
    "latitude": 46.0845,
    "longitude": -71.9782415
  },
  {
    "neighborhood": "Bunting",
    "city": "Echeng",
    "averageAge": 39,
    "distanceFromCityCenter": 82.0,
    "averageIncome": 45234,
    "publicTransportAvailability": "low",
    "latitude": 30.400572,
    "longitude": 114.891614
  },
  {
    "neighborhood": "Novick",
    "city": "Heka",
    "averageAge": 49,
    "distanceFromCityCenter": 45.3,
    "averageIncome": 20928,
    "publicTransportAvailability": "medium",
    "latitude": 24.4670098,
    "longitude": 118.0855763
  },
  {
    "neighborhood": "Marcy",
    "city": "Kinatakutan",
    "averageAge": 32,
    "distanceFromCityCenter": 28.2,
    "averageIncome": 73806,
    "publicTransportAvailability": "none",
    "latitude": 14.0155209,
    "longitude": 122.4776048
  },
  {
    "neighborhood": "Havey",
    "city": "Horad Smalyavichy",
    "averageAge": 33,
    "distanceFromCityCenter": 81.3,
    "averageIncome": 75914,
    "publicTransportAvailability": "medium",
    "latitude": 54.0297214,
    "longitude": 28.0892299
  },
  {
    "neighborhood": "Oak",
    "city": "São Miguel do Guamá",
    "averageAge": 22,
    "distanceFromCityCenter": 34.6,
    "averageIncome": 52903,
    "publicTransportAvailability": "medium",
    "latitude": -1.5564515,
    "longitude": -47.6455169
  },
  {
    "neighborhood": "Shelley",
    "city": "Botoh",
    "averageAge": 43,
    "distanceFromCityCenter": 11.3,
    "averageIncome": 85039,
    "publicTransportAvailability": "high",
    "latitude": -7.2608514,
    "longitude": 111.7793523
  },
  {
    "neighborhood": "Ridgeview",
    "city": "Kuma",
    "averageAge": 27,
    "distanceFromCityCenter": 57.6,
    "averageIncome": 52337,
    "publicTransportAvailability": "medium",
    "latitude": -6.155077,
    "longitude": 106.817744
  },
  {
    "neighborhood": "Bay",
    "state": "01",
    "city": "Moss",
    "averageAge": 63,
    "distanceFromCityCenter": 0.9,
    "averageIncome": 2123,
    "publicTransportAvailability": "none",
    "latitude": 59.3779388,
    "longitude": 10.7605604
  },
  {
    "neighborhood": "Victoria",
    "city": "Kass Wollof",
    "averageAge": 53,
    "distanceFromCityCenter": 3.9,
    "averageIncome": 45027,
    "publicTransportAvailability": "medium",
    "latitude": 13.78333,
    "longitude": -14.93333
  },
  {
    "neighborhood": "Lerdahl",
    "state": "KY",
    "city": "Louisville",
    "averageAge": 22,
    "distanceFromCityCenter": 16.3,
    "averageIncome": 83857,
    "publicTransportAvailability": "none",
    "latitude": 38.2,
    "longitude": -85.7
  },
  {
    "neighborhood": "4th",
    "city": "Emnambithi-Ladysmith",
    "averageAge": 64,
    "distanceFromCityCenter": 14.3,
    "averageIncome": 27414,
    "publicTransportAvailability": "low",
    "latitude": -28.5600363,
    "longitude": 29.7779991
  },
  {
    "neighborhood": "Welch",
    "city": "Sagay",
    "averageAge": 68,
    "distanceFromCityCenter": 89.6,
    "averageIncome": 3731,
    "publicTransportAvailability": "low",
    "latitude": 9.1249562,
    "longitude": 124.7445365
  },
  {
    "neighborhood": "Drewry",
    "state": "43",
    "city": "São Bartolomeu",
    "averageAge": 70,
    "distanceFromCityCenter": 0.4,
    "averageIncome": 80940,
    "publicTransportAvailability": "high",
    "latitude": 38.67387,
    "longitude": -27.281743
  },
  {
    "neighborhood": "Susan",
    "city": "Henghe",
    "averageAge": 55,
    "distanceFromCityCenter": 29.9,
    "averageIncome": 40574,
    "publicTransportAvailability": "low",
    "latitude": 29.756501,
    "longitude": 121.507191
  },
  {
    "neighborhood": "Marcy",
    "city": "Xingtai",
    "averageAge": 25,
    "distanceFromCityCenter": 92.8,
    "averageIncome": 68547,
    "publicTransportAvailability": "none",
    "latitude": 37.070834,
    "longitude": 114.504677
  },
  {
    "neighborhood": "Vahlen",
    "state": "ON",
    "city": "Clarence-Rockland",
    "averageAge": 35,
    "distanceFromCityCenter": 77.6,
    "averageIncome": 32360,
    "publicTransportAvailability": "none",
    "latitude": 45.5483729,
    "longitude": -75.2916118
  },
  {
    "neighborhood": "Dapin",
    "city": "Horad Smalyavichy",
    "averageAge": 19,
    "distanceFromCityCenter": 30.7,
    "averageIncome": 67398,
    "publicTransportAvailability": "none",
    "latitude": 54.0297214,
    "longitude": 28.0892299
  },
  {
    "neighborhood": "Village",
    "state": "B9",
    "city": "Lyon",
    "averageAge": 54,
    "distanceFromCityCenter": 90.5,
    "averageIncome": 58417,
    "publicTransportAvailability": "none",
    "latitude": 43.0429124,
    "longitude": 1.9038837
  },
  {
    "neighborhood": "Sachs",
    "city": "Changbai",
    "averageAge": 28,
    "distanceFromCityCenter": 42.7,
    "averageIncome": 94640,
    "publicTransportAvailability": "low",
    "latitude": 41.420018,
    "longitude": 128.200789
  },
  {
    "neighborhood": "Gateway",
    "city": "Dikou",
    "averageAge": 21,
    "distanceFromCityCenter": 56.8,
    "averageIncome": 27371,
    "publicTransportAvailability": "high",
    "latitude": 26.745704,
    "longitude": 118.469281
  },
  {
    "neighborhood": "Rigney",
    "state": "AB",
    "city": "Bromma",
    "averageAge": 67,
    "distanceFromCityCenter": 2.2,
    "averageIncome": 13810,
    "publicTransportAvailability": "medium",
    "latitude": 59.3245933,
    "longitude": 17.9509504
  },
  {
    "neighborhood": "Sullivan",
    "state": "U",
    "city": "Heby",
    "averageAge": 51,
    "distanceFromCityCenter": 32.8,
    "averageIncome": 99140,
    "publicTransportAvailability": "none",
    "latitude": 59.1631398,
    "longitude": 17.1921015
  },
  {
    "neighborhood": "Magdeline",
    "state": "NSW",
    "city": "Sydney",
    "averageAge": 52,
    "distanceFromCityCenter": 68.9,
    "averageIncome": 87734,
    "publicTransportAvailability": "low",
    "latitude": -33.7974423,
    "longitude": 151.2502275
  },
  {
    "neighborhood": "Burrows",
    "city": "Taourirt",
    "averageAge": 67,
    "distanceFromCityCenter": 99.2,
    "averageIncome": 72390,
    "publicTransportAvailability": "none",
    "latitude": 34.3983716,
    "longitude": -2.8935028
  },
  {
    "neighborhood": "Swallow",
    "city": "Beishan",
    "averageAge": 48,
    "distanceFromCityCenter": 46.5,
    "averageIncome": 46269,
    "publicTransportAvailability": "high",
    "latitude": 28.39895,
    "longitude": 113.02064
  },
  {
    "neighborhood": "Gateway",
    "state": "16",
    "city": "Eirado",
    "averageAge": 48,
    "distanceFromCityCenter": 11.2,
    "averageIncome": 77919,
    "publicTransportAvailability": "high",
    "latitude": 41.046959,
    "longitude": -8.6423484
  },
  {
    "neighborhood": "Golf View",
    "city": "Riyom",
    "averageAge": 68,
    "distanceFromCityCenter": 50.5,
    "averageIncome": 21363,
    "publicTransportAvailability": "medium",
    "latitude": 9.5842063,
    "longitude": 8.713707
  },
  {
    "neighborhood": "Hovde",
    "city": "Sanhe",
    "averageAge": 42,
    "distanceFromCityCenter": 82.0,
    "averageIncome": 7842,
    "publicTransportAvailability": "medium",
    "latitude": 39.982718,
    "longitude": 117.078294
  },
  {
    "neighborhood": "Kinsman",
    "city": "Gyumri",
    "averageAge": 63,
    "distanceFromCityCenter": 58.2,
    "averageIncome": 39842,
    "publicTransportAvailability": "medium",
    "latitude": 40.7929026,
    "longitude": 43.8464971
  },
  {
    "neighborhood": "Northland",
    "city": "Hepu",
    "averageAge": 53,
    "distanceFromCityCenter": 57.5,
    "averageIncome": 88701,
    "publicTransportAvailability": "low",
    "latitude": 21.660935,
    "longitude": 109.207335
  },
  {
    "neighborhood": "Sachs",
    "city": "Nong Hin",
    "averageAge": 40,
    "distanceFromCityCenter": 86.0,
    "averageIncome": 93157,
    "publicTransportAvailability": "medium",
    "latitude": 12.8897363,
    "longitude": 100.9010416
  },
  {
    "neighborhood": "Ryan",
    "city": "Cuamba",
    "averageAge": 40,
    "distanceFromCityCenter": 22.3,
    "averageIncome": 63271,
    "publicTransportAvailability": "high",
    "latitude": -14.8000877,
    "longitude": 36.5337731
  },
  {
    "neighborhood": "Dahle",
    "city": "Jiaokou",
    "averageAge": 68,
    "distanceFromCityCenter": 69.6,
    "averageIncome": 28787,
    "publicTransportAvailability": "none",
    "latitude": 36.982186,
    "longitude": 111.18115
  },
  {
    "neighborhood": "Becker",
    "city": "Galesong",
    "averageAge": 42,
    "distanceFromCityCenter": 92.0,
    "averageIncome": 83381,
    "publicTransportAvailability": "none",
    "latitude": -5.3383734,
    "longitude": 119.3831026
  },
  {
    "neighborhood": "Schmedeman",
    "city": "Piraju",
    "averageAge": 52,
    "distanceFromCityCenter": 76.9,
    "averageIncome": 26418,
    "publicTransportAvailability": "high",
    "latitude": -23.1770971,
    "longitude": -49.3838782
  },
  {
    "neighborhood": "Mosinee",
    "state": "C1",
    "city": "Strasbourg",
    "averageAge": 29,
    "distanceFromCityCenter": 81.4,
    "averageIncome": 70247,
    "publicTransportAvailability": "low",
    "latitude": 48.5851876,
    "longitude": 7.7342943
  },
  {
    "neighborhood": "Reinke",
    "city": "Shuvakish",
    "averageAge": 27,
    "distanceFromCityCenter": 47.3,
    "averageIncome": 61282,
    "publicTransportAvailability": "medium",
    "latitude": 56.9191069,
    "longitude": 60.4807823
  },
  {
    "neighborhood": "Marcy",
    "state": "AB",
    "city": "Rönninge",
    "averageAge": 69,
    "distanceFromCityCenter": 51.2,
    "averageIncome": 9343,
    "publicTransportAvailability": "none",
    "latitude": 59.1894804,
    "longitude": 17.7558589
  },
  {
    "neighborhood": "Oakridge",
    "city": "Sirari",
    "averageAge": 68,
    "distanceFromCityCenter": 78.4,
    "averageIncome": 5141,
    "publicTransportAvailability": "low",
    "latitude": -1.2549934,
    "longitude": 34.4705503
  },
  {
    "neighborhood": "Elka",
    "city": "Zhushan",
    "averageAge": 50,
    "distanceFromCityCenter": 95.1,
    "averageIncome": 34462,
    "publicTransportAvailability": "low",
    "latitude": 32.224808,
    "longitude": 110.228747
  },
  {
    "neighborhood": "Michigan",
    "city": "Las Parejas",
    "averageAge": 52,
    "distanceFromCityCenter": 8.6,
    "averageIncome": 98693,
    "publicTransportAvailability": "high",
    "latitude": -34.5872079,
    "longitude": -58.494505
  },
  {
    "neighborhood": "Harbort",
    "state": "AB",
    "city": "Stockholm",
    "averageAge": 68,
    "distanceFromCityCenter": 5.4,
    "averageIncome": 45908,
    "publicTransportAvailability": "medium",
    "latitude": 59.3156702,
    "longitude": 18.0942083
  },
  {
    "neighborhood": "Independence",
    "city": "Lepaterique",
    "averageAge": 42,
    "distanceFromCityCenter": 9.3,
    "averageIncome": 84524,
    "publicTransportAvailability": "medium",
    "latitude": 14.0666041,
    "longitude": -87.4678266
  },
  {
    "neighborhood": "Chinook",
    "city": "Fubin",
    "averageAge": 49,
    "distanceFromCityCenter": 15.6,
    "averageIncome": 65589,
    "publicTransportAvailability": "none",
    "latitude": 31.297414,
    "longitude": 121.450653
  },
  {
    "neighborhood": "Sundown",
    "state": "B8",
    "city": "Orange",
    "averageAge": 65,
    "distanceFromCityCenter": 90.3,
    "averageIncome": 42341,
    "publicTransportAvailability": "medium",
    "latitude": 44.1372925,
    "longitude": 4.810107
  },
  {
    "neighborhood": "Bunting",
    "city": "Dayangqi",
    "averageAge": 25,
    "distanceFromCityCenter": 43.2,
    "averageIncome": 36530,
    "publicTransportAvailability": "medium",
    "latitude": 37.933843,
    "longitude": 106.337072
  },
  {
    "neighborhood": "Porter",
    "city": "Pailles",
    "averageAge": 35,
    "distanceFromCityCenter": 91.5,
    "averageIncome": 19305,
    "publicTransportAvailability": "medium",
    "latitude": -20.1924448,
    "longitude": 57.4895229
  },
  {
    "neighborhood": "Hintze",
    "city": "Oranzherei",
    "averageAge": 66,
    "distanceFromCityCenter": 87.1,
    "averageIncome": 1388,
    "publicTransportAvailability": "low",
    "latitude": 45.84756,
    "longitude": 47.56635
  },
  {
    "neighborhood": "Reinke",
    "city": "Dongdong",
    "averageAge": 20,
    "distanceFromCityCenter": 73.9,
    "averageIncome": 53951,
    "publicTransportAvailability": "none",
    "latitude": 23.3790333,
    "longitude": 113.7632828
  },
  {
    "neighborhood": "Vahlen",
    "city": "Gradishtë",
    "averageAge": 29,
    "distanceFromCityCenter": 1.6,
    "averageIncome": 12999,
    "publicTransportAvailability": "medium",
    "latitude": 40.8875343,
    "longitude": 19.5880506
  },
  {
    "neighborhood": "Golden Leaf",
    "city": "Nytva",
    "averageAge": 51,
    "distanceFromCityCenter": 44.8,
    "averageIncome": 88690,
    "publicTransportAvailability": "high",
    "latitude": 57.9331563,
    "longitude": 55.34672
  },
  {
    "neighborhood": "Spenser",
    "city": "Genting",
    "averageAge": 70,
    "distanceFromCityCenter": 62.1,
    "averageIncome": 52352,
    "publicTransportAvailability": "none",
    "latitude": 3.7,
    "longitude": 98.166667
  },
  {
    "neighborhood": "Superior",
    "city": "Jam",
    "averageAge": 43,
    "distanceFromCityCenter": 47.7,
    "averageIncome": 38709,
    "publicTransportAvailability": "low",
    "latitude": 27.8122083,
    "longitude": 52.350694
  },
  {
    "neighborhood": "Iowa",
    "city": "Boundiali",
    "averageAge": 69,
    "distanceFromCityCenter": 33.7,
    "averageIncome": 46056,
    "publicTransportAvailability": "medium",
    "latitude": 9.5183617,
    "longitude": -6.482318
  },
  {
    "neighborhood": "Helena",
    "city": "Lubichowo",
    "averageAge": 31,
    "distanceFromCityCenter": 49.0,
    "averageIncome": 50779,
    "publicTransportAvailability": "none",
    "latitude": 53.8514527,
    "longitude": 18.3991666
  },
  {
    "neighborhood": "American",
    "city": "Nowe Miasto nad Pilicą",
    "averageAge": 38,
    "distanceFromCityCenter": 13.0,
    "averageIncome": 82955,
    "publicTransportAvailability": "high",
    "latitude": 51.62883,
    "longitude": 20.52487
  },
  {
    "neighborhood": "Haas",
    "city": "Tanzhou",
    "averageAge": 34,
    "distanceFromCityCenter": 71.3,
    "averageIncome": 43989,
    "publicTransportAvailability": "medium",
    "latitude": 22.254836,
    "longitude": 113.467503
  },
  {
    "neighborhood": "Cascade",
    "city": "Casimiro de Abreu",
    "averageAge": 50,
    "distanceFromCityCenter": 16.7,
    "averageIncome": 75116,
    "publicTransportAvailability": "none",
    "latitude": -22.4836725,
    "longitude": -42.2015431
  },
  {
    "neighborhood": "Blaine",
    "city": "Rancaerang",
    "averageAge": 70,
    "distanceFromCityCenter": 60.9,
    "averageIncome": 49751,
    "publicTransportAvailability": "low",
    "latitude": -7.4231763,
    "longitude": 106.719766
  },
  {
    "neighborhood": "Park Meadow",
    "city": "Roshnik",
    "averageAge": 53,
    "distanceFromCityCenter": 41.3,
    "averageIncome": 1370,
    "publicTransportAvailability": "low",
    "latitude": 40.7316367,
    "longitude": 20.0427329
  },
  {
    "neighborhood": "Warrior",
    "state": "A8",
    "city": "Pantin",
    "averageAge": 24,
    "distanceFromCityCenter": 79.5,
    "averageIncome": 8160,
    "publicTransportAvailability": "low",
    "latitude": 45.7608815,
    "longitude": 4.26286
  },
  {
    "neighborhood": "Mandrake",
    "city": "Annau",
    "averageAge": 53,
    "distanceFromCityCenter": 37.6,
    "averageIncome": 96244,
    "publicTransportAvailability": "medium",
    "latitude": 37.9059243,
    "longitude": 58.4972596
  },
  {
    "neighborhood": "Oakridge",
    "city": "Lourdes",
    "averageAge": 58,
    "distanceFromCityCenter": 60.2,
    "averageIncome": 16281,
    "publicTransportAvailability": "medium",
    "latitude": 14.6279122,
    "longitude": 121.0034428
  },
  {
    "neighborhood": "Loomis",
    "city": "Fuyo",
    "averageAge": 35,
    "distanceFromCityCenter": 66.1,
    "averageIncome": 64641,
    "publicTransportAvailability": "medium",
    "latitude": 44.9857216,
    "longitude": 126.0278163
  },
  {
    "neighborhood": "Gerald",
    "city": "San Felipe",
    "averageAge": 50,
    "distanceFromCityCenter": 51.7,
    "averageIncome": 79170,
    "publicTransportAvailability": "low",
    "latitude": -5.770584,
    "longitude": -79.313438
  },
  {
    "neighborhood": "Blaine",
    "city": "Borogontsy",
    "averageAge": 35,
    "distanceFromCityCenter": 66.8,
    "averageIncome": 52387,
    "publicTransportAvailability": "medium",
    "latitude": 62.679165,
    "longitude": 131.152863
  },
  {
    "neighborhood": "Harbort",
    "city": "Saint-Pierre",
    "averageAge": 21,
    "distanceFromCityCenter": 86.8,
    "averageIncome": 13241,
    "publicTransportAvailability": "medium",
    "latitude": 46.779204,
    "longitude": -56.173126
  },
  {
    "neighborhood": "Marquette",
    "city": "Kcynia",
    "averageAge": 63,
    "distanceFromCityCenter": 91.7,
    "averageIncome": 2392,
    "publicTransportAvailability": "low",
    "latitude": 52.99166,
    "longitude": 17.4884299
  },
  {
    "neighborhood": "Macpherson",
    "city": "Wumahe",
    "averageAge": 50,
    "distanceFromCityCenter": 36.9,
    "averageIncome": 9787,
    "publicTransportAvailability": "medium",
    "latitude": 47.727687,
    "longitude": 128.799478
  },
  {
    "neighborhood": "Arapahoe",
    "city": "Kabba",
    "averageAge": 40,
    "distanceFromCityCenter": 70.8,
    "averageIncome": 56712,
    "publicTransportAvailability": "high",
    "latitude": 7.8231145,
    "longitude": 6.0732146
  },
  {
    "neighborhood": "Melrose",
    "city": "Haitou",
    "averageAge": 40,
    "distanceFromCityCenter": 11.5,
    "averageIncome": 67264,
    "publicTransportAvailability": "medium",
    "latitude": 24.562945,
    "longitude": 118.26435
  },
  {
    "neighborhood": "Cambridge",
    "city": "Kaznějov",
    "averageAge": 62,
    "distanceFromCityCenter": 85.1,
    "averageIncome": 42656,
    "publicTransportAvailability": "low",
    "latitude": 49.8931387,
    "longitude": 13.3829583
  },
  {
    "neighborhood": "Lien",
    "city": "Huai Mek",
    "averageAge": 38,
    "distanceFromCityCenter": 52.1,
    "averageIncome": 75090,
    "publicTransportAvailability": "medium",
    "latitude": 16.5564748,
    "longitude": 103.2432632
  },
  {
    "neighborhood": "Becker",
    "city": "Yamaranguila",
    "averageAge": 29,
    "distanceFromCityCenter": 53.3,
    "averageIncome": 61037,
    "publicTransportAvailability": "medium",
    "latitude": 14.2811192,
    "longitude": -88.2424674
  },
  {
    "neighborhood": "Sutherland",
    "city": "Megion",
    "averageAge": 60,
    "distanceFromCityCenter": 60.5,
    "averageIncome": 2410,
    "publicTransportAvailability": "low",
    "latitude": 60.9847449,
    "longitude": 76.4585878
  },
  {
    "neighborhood": "Donald",
    "city": "Seoam",
    "averageAge": 45,
    "distanceFromCityCenter": 41.6,
    "averageIncome": 76948,
    "publicTransportAvailability": "medium",
    "latitude": -9.5587797,
    "longitude": 124.3272134
  },
  {
    "neighborhood": "Columbus",
    "city": "San José de Cusmapa",
    "averageAge": 42,
    "distanceFromCityCenter": 72.4,
    "averageIncome": 51821,
    "publicTransportAvailability": "none",
    "latitude": 13.2892111,
    "longitude": -86.6548114
  },
  {
    "neighborhood": "Bobwhite",
    "city": "Garibaldi",
    "averageAge": 52,
    "distanceFromCityCenter": 23.3,
    "averageIncome": 19622,
    "publicTransportAvailability": "none",
    "latitude": -29.2581646,
    "longitude": -51.5289168
  },
  {
    "neighborhood": "Valley Edge",
    "city": "Herrera",
    "averageAge": 53,
    "distanceFromCityCenter": 88.8,
    "averageIncome": 56919,
    "publicTransportAvailability": "none",
    "latitude": 14.6181466,
    "longitude": 120.9818412
  },
  {
    "neighborhood": "Talisman",
    "city": "Ash Shiḩr",
    "averageAge": 47,
    "distanceFromCityCenter": 7.9,
    "averageIncome": 48517,
    "publicTransportAvailability": "low",
    "latitude": 14.7634494,
    "longitude": 49.6044141
  },
  {
    "neighborhood": "Dwight",
    "city": "Santa Ana",
    "averageAge": 62,
    "distanceFromCityCenter": 64.2,
    "averageIncome": 59030,
    "publicTransportAvailability": "medium",
    "latitude": -13.0730531,
    "longitude": -75.1397677
  },
  {
    "neighborhood": "Vernon",
    "city": "Gunajaya",
    "averageAge": 69,
    "distanceFromCityCenter": 70.0,
    "averageIncome": 54200,
    "publicTransportAvailability": "medium",
    "latitude": -7.3733703,
    "longitude": 108.2822389
  },
  {
    "neighborhood": "Lukken",
    "city": "Kolondiéba",
    "averageAge": 62,
    "distanceFromCityCenter": 81.1,
    "averageIncome": 43113,
    "publicTransportAvailability": "medium",
    "latitude": 11.0915371,
    "longitude": -6.8914024
  },
  {
    "neighborhood": "Schmedeman",
    "city": "Zhugang",
    "averageAge": 54,
    "distanceFromCityCenter": 50.5,
    "averageIncome": 83368,
    "publicTransportAvailability": "none",
    "latitude": 45.76629,
    "longitude": 126.610421
  },
  {
    "neighborhood": "West",
    "city": "Victoria",
    "averageAge": 52,
    "distanceFromCityCenter": 5.9,
    "averageIncome": 6553,
    "publicTransportAvailability": "none",
    "latitude": 14.5346437,
    "longitude": 121.0133007
  },
  {
    "neighborhood": "Norway Maple",
    "city": "Harjamukti",
    "averageAge": 22,
    "distanceFromCityCenter": 91.8,
    "averageIncome": 31987,
    "publicTransportAvailability": "medium",
    "latitude": -6.7533085,
    "longitude": 108.5522531
  },
  {
    "neighborhood": "Shoshone",
    "city": "Kutapanjang",
    "averageAge": 34,
    "distanceFromCityCenter": 19.8,
    "averageIncome": 26357,
    "publicTransportAvailability": "none",
    "latitude": 3.8149378,
    "longitude": 97.2005806
  },
  {
    "neighborhood": "Raven",
    "city": "Pengxing",
    "averageAge": 51,
    "distanceFromCityCenter": 92.0,
    "averageIncome": 27929,
    "publicTransportAvailability": "high",
    "latitude": 30.961094,
    "longitude": 113.922251
  },
  {
    "neighborhood": "Mallory",
    "city": "Sojo",
    "averageAge": 52,
    "distanceFromCityCenter": 0.5,
    "averageIncome": 93395,
    "publicTransportAvailability": "low",
    "latitude": -12.1140973,
    "longitude": -77.0445279
  },
  {
    "neighborhood": "American",
    "city": "Sankeyushu",
    "averageAge": 40,
    "distanceFromCityCenter": 5.1,
    "averageIncome": 16849,
    "publicTransportAvailability": "none",
    "latitude": 41.7467513,
    "longitude": 125.4067749
  },
  {
    "neighborhood": "Fairview",
    "state": "NSW",
    "city": "Sydney",
    "averageAge": 58,
    "distanceFromCityCenter": 59.8,
    "averageIncome": 19035,
    "publicTransportAvailability": "none",
    "latitude": -37.7204693,
    "longitude": 144.9629556
  },
  {
    "neighborhood": "Waubesa",
    "city": "Turka",
    "averageAge": 44,
    "distanceFromCityCenter": 89.0,
    "averageIncome": 15566,
    "publicTransportAvailability": "medium",
    "latitude": 59.9388564,
    "longitude": 30.3598522
  },
  {
    "neighborhood": "Dawn",
    "city": "Qishn",
    "averageAge": 44,
    "distanceFromCityCenter": 9.8,
    "averageIncome": 41850,
    "publicTransportAvailability": "medium",
    "latitude": 15.4217858,
    "longitude": 51.678158
  },
  {
    "neighborhood": "Kenwood",
    "city": "Birendranagar",
    "averageAge": 58,
    "distanceFromCityCenter": 66.4,
    "averageIncome": 79015,
    "publicTransportAvailability": "high",
    "latitude": 28.5776106,
    "longitude": 81.6254283
  },
  {
    "neighborhood": "Talisman",
    "state": "A4",
    "city": "Reims",
    "averageAge": 53,
    "distanceFromCityCenter": 23.0,
    "averageIncome": 60607,
    "publicTransportAvailability": "low",
    "latitude": 49.1790652,
    "longitude": 4.2094771
  },
  {
    "neighborhood": "Kingsford",
    "city": "Darkūsh",
    "averageAge": 20,
    "distanceFromCityCenter": 35.0,
    "averageIncome": 7905,
    "publicTransportAvailability": "none",
    "latitude": 35.991705,
    "longitude": 36.3938121
  },
  {
    "neighborhood": "Manitowish",
    "city": "Vostryakovo",
    "averageAge": 55,
    "distanceFromCityCenter": 59.8,
    "averageIncome": 45945,
    "publicTransportAvailability": "high",
    "latitude": 55.6613674,
    "longitude": 37.4429397
  },
  {
    "neighborhood": "Barnett",
    "city": "Sungai Iyu",
    "averageAge": 63,
    "distanceFromCityCenter": 57.6,
    "averageIncome": 45630,
    "publicTransportAvailability": "low",
    "latitude": 4.4054033,
    "longitude": 98.1680005
  },
  {
    "neighborhood": "Shasta",
    "city": "Sarapul",
    "averageAge": 45,
    "distanceFromCityCenter": 53.0,
    "averageIncome": 71723,
    "publicTransportAvailability": "none",
    "latitude": 56.5646213,
    "longitude": 53.8155143
  },
  {
    "neighborhood": "Leroy",
    "city": "Spas",
    "averageAge": 52,
    "distanceFromCityCenter": 68.7,
    "averageIncome": 29913,
    "publicTransportAvailability": "medium",
    "latitude": 48.4474111,
    "longitude": 25.0435007
  },
  {
    "neighborhood": "Meadow Ridge",
    "city": "El Cantón de San Pablo",
    "averageAge": 27,
    "distanceFromCityCenter": 57.5,
    "averageIncome": 68662,
    "publicTransportAvailability": "medium",
    "latitude": -0.2142002,
    "longitude": -78.4989722
  },
  {
    "neighborhood": "Bellgrove",
    "city": "Sangkalputung",
    "averageAge": 55,
    "distanceFromCityCenter": 40.3,
    "averageIncome": 28339,
    "publicTransportAvailability": "high",
    "latitude": -7.2268363,
    "longitude": 112.7286573
  },
  {
    "neighborhood": "Garrison",
    "city": "San Miguel",
    "averageAge": 35,
    "distanceFromCityCenter": 47.6,
    "averageIncome": 7765,
    "publicTransportAvailability": "none",
    "latitude": -26.5380045,
    "longitude": -57.0421483
  },
  {
    "neighborhood": "Buell",
    "city": "Ban Khok",
    "averageAge": 49,
    "distanceFromCityCenter": 59.3,
    "averageIncome": 5205,
    "publicTransportAvailability": "none",
    "latitude": 18.250185,
    "longitude": 101.0259275
  },
  {
    "neighborhood": "Roxbury",
    "city": "Kaputian",
    "averageAge": 65,
    "distanceFromCityCenter": 27.8,
    "averageIncome": 4108,
    "publicTransportAvailability": "low",
    "latitude": 7.0583573,
    "longitude": 125.7222954
  },
  {
    "neighborhood": "Summer Ridge",
    "city": "Komenda",
    "averageAge": 28,
    "distanceFromCityCenter": 1.2,
    "averageIncome": 67012,
    "publicTransportAvailability": "high",
    "latitude": 46.2052815,
    "longitude": 14.5391653
  },
  {
    "neighborhood": "Susan",
    "state": "42",
    "city": "Fenais da Luz",
    "averageAge": 49,
    "distanceFromCityCenter": 4.2,
    "averageIncome": 4070,
    "publicTransportAvailability": "none",
    "latitude": 37.8247025,
    "longitude": -25.6435923
  },
  {
    "neighborhood": "Washington",
    "city": "Ko Pha Ngan",
    "averageAge": 48,
    "distanceFromCityCenter": 75.8,
    "averageIncome": 70929,
    "publicTransportAvailability": "high",
    "latitude": 9.7421342,
    "longitude": 99.9788481
  },
  {
    "neighborhood": "Hollow Ridge",
    "city": "Nkayi",
    "averageAge": 24,
    "distanceFromCityCenter": 50.3,
    "averageIncome": 46674,
    "publicTransportAvailability": "high",
    "latitude": -4.1828379,
    "longitude": 13.2865504
  },
  {
    "neighborhood": "Emmet",
    "city": "Všemina",
    "averageAge": 57,
    "distanceFromCityCenter": 65.2,
    "averageIncome": 68247,
    "publicTransportAvailability": "medium",
    "latitude": 49.2809997,
    "longitude": 17.876832
  },
  {
    "neighborhood": "Northfield",
    "city": "Udon Thani",
    "averageAge": 38,
    "distanceFromCityCenter": 72.9,
    "averageIncome": 61741,
    "publicTransportAvailability": "low",
    "latitude": 17.387112,
    "longitude": 102.7755279
  },
  {
    "neighborhood": "Butternut",
    "city": "Magapit",
    "averageAge": 69,
    "distanceFromCityCenter": 31.2,
    "averageIncome": 71369,
    "publicTransportAvailability": "medium",
    "latitude": 18.1219608,
    "longitude": 121.6723186
  },
  {
    "neighborhood": "Cottonwood",
    "state": "18",
    "city": "Vales",
    "averageAge": 66,
    "distanceFromCityCenter": 98.5,
    "averageIncome": 63551,
    "publicTransportAvailability": "high",
    "latitude": 40.5845053,
    "longitude": -8.0854006
  },
  {
    "neighborhood": "Hintze",
    "city": "Camargo",
    "averageAge": 30,
    "distanceFromCityCenter": 71.7,
    "averageIncome": 35849,
    "publicTransportAvailability": "none",
    "latitude": -20.6405825,
    "longitude": -65.2070534
  },
  {
    "neighborhood": "Park Meadow",
    "city": "Cipadung",
    "averageAge": 57,
    "distanceFromCityCenter": 66.6,
    "averageIncome": 86220,
    "publicTransportAvailability": "medium",
    "latitude": -6.9253881,
    "longitude": 107.7177302
  },
  {
    "neighborhood": "Lien",
    "city": "Sevlievo",
    "averageAge": 52,
    "distanceFromCityCenter": 48.1,
    "averageIncome": 22888,
    "publicTransportAvailability": "low",
    "latitude": 42.9871344,
    "longitude": 25.0635741
  },
  {
    "neighborhood": "Fordem",
    "city": "San Diego",
    "averageAge": 66,
    "distanceFromCityCenter": 86.9,
    "averageIncome": 54719,
    "publicTransportAvailability": "high",
    "latitude": 10.333974,
    "longitude": -73.180718
  },
  {
    "neighborhood": "Superior",
    "city": "Cotton Ground",
    "averageAge": 22,
    "distanceFromCityCenter": 2.3,
    "averageIncome": 43907,
    "publicTransportAvailability": "low",
    "latitude": 17.1744437,
    "longitude": -62.617788
  },
  {
    "neighborhood": "Park Meadow",
    "city": "Palapye",
    "averageAge": 23,
    "distanceFromCityCenter": 40.9,
    "averageIncome": 46302,
    "publicTransportAvailability": "high",
    "latitude": -22.5514872,
    "longitude": 27.1147095
  },
  {
    "neighborhood": "Hallows",
    "city": "Bilice",
    "averageAge": 28,
    "distanceFromCityCenter": 68.7,
    "averageIncome": 63926,
    "publicTransportAvailability": "none",
    "latitude": 45.2581286,
    "longitude": 17.8291657
  },
  {
    "neighborhood": "Fallview",
    "city": "Monte Azul Paulista",
    "averageAge": 36,
    "distanceFromCityCenter": 37.0,
    "averageIncome": 7417,
    "publicTransportAvailability": "medium",
    "latitude": -20.8890637,
    "longitude": -48.6790007
  },
  {
    "neighborhood": "Donald",
    "city": "Ceper",
    "averageAge": 60,
    "distanceFromCityCenter": 60.4,
    "averageIncome": 9407,
    "publicTransportAvailability": "high",
    "latitude": -7.6832323,
    "longitude": 110.670528
  },
  {
    "neighborhood": "Barnett",
    "state": "FL",
    "city": "Fort Lauderdale",
    "averageAge": 64,
    "distanceFromCityCenter": 62.9,
    "averageIncome": 87751,
    "publicTransportAvailability": "medium",
    "latitude": 26.11,
    "longitude": -80.3
  },
  {
    "neighborhood": "Ridgeway",
    "city": "Fengtang",
    "averageAge": 30,
    "distanceFromCityCenter": 90.8,
    "averageIncome": 49687,
    "publicTransportAvailability": "none",
    "latitude": 31.2348663,
    "longitude": 121.4748751
  },
  {
    "neighborhood": "Vermont",
    "city": "Jiangnan",
    "averageAge": 18,
    "distanceFromCityCenter": 59.3,
    "averageIncome": 22667,
    "publicTransportAvailability": "low",
    "latitude": 22.781631,
    "longitude": 108.273158
  },
  {
    "neighborhood": "Muir",
    "city": "Chiconi",
    "averageAge": 42,
    "distanceFromCityCenter": 0.3,
    "averageIncome": 34386,
    "publicTransportAvailability": "high",
    "latitude": -12.8255986,
    "longitude": 45.1149977
  },
  {
    "neighborhood": "Corscot",
    "city": "Ōkuchi",
    "averageAge": 57,
    "distanceFromCityCenter": 15.3,
    "averageIncome": 43441,
    "publicTransportAvailability": "low",
    "latitude": 40.0982704,
    "longitude": 139.9803194
  },
  {
    "neighborhood": "Twin Pines",
    "city": "Dimiao",
    "averageAge": 63,
    "distanceFromCityCenter": 24.3,
    "averageIncome": 67608,
    "publicTransportAvailability": "low",
    "latitude": 9.6037331,
    "longitude": 124.1518808
  },
  {
    "neighborhood": "Loeprich",
    "city": "Silao",
    "averageAge": 20,
    "distanceFromCityCenter": 26.1,
    "averageIncome": 47310,
    "publicTransportAvailability": "high",
    "latitude": 23.892873,
    "longitude": 108.40254
  },
  {
    "neighborhood": "Oxford",
    "city": "Dul’durga",
    "averageAge": 52,
    "distanceFromCityCenter": 3.4,
    "averageIncome": 12284,
    "publicTransportAvailability": "high",
    "latitude": 50.6749519,
    "longitude": 113.5905613
  },
  {
    "neighborhood": "Utah",
    "city": "Ivatsevichy",
    "averageAge": 44,
    "distanceFromCityCenter": 93.5,
    "averageIncome": 96385,
    "publicTransportAvailability": "low",
    "latitude": 52.7085795,
    "longitude": 25.3346543
  },
  {
    "neighborhood": "Sachs",
    "city": "Molochnoye",
    "averageAge": 65,
    "distanceFromCityCenter": 99.0,
    "averageIncome": 69513,
    "publicTransportAvailability": "low",
    "latitude": 59.2896794,
    "longitude": 39.6767475
  },
  {
    "neighborhood": "Dennis",
    "state": "U",
    "city": "Sala",
    "averageAge": 30,
    "distanceFromCityCenter": 98.9,
    "averageIncome": 11584,
    "publicTransportAvailability": "none",
    "latitude": 59.8292954,
    "longitude": 16.5457017
  },
  {
    "neighborhood": "Butternut",
    "city": "Bateria",
    "averageAge": 35,
    "distanceFromCityCenter": 24.0,
    "averageIncome": 76701,
    "publicTransportAvailability": "high",
    "latitude": 9.9508447,
    "longitude": 123.9658538
  },
  {
    "neighborhood": "Independence",
    "city": "Zastávka",
    "averageAge": 21,
    "distanceFromCityCenter": 28.1,
    "averageIncome": 48659,
    "publicTransportAvailability": "medium",
    "latitude": 49.1879961,
    "longitude": 16.3631011
  },
  {
    "neighborhood": "Aberg",
    "city": "Shuangta",
    "averageAge": 68,
    "distanceFromCityCenter": 25.8,
    "averageIncome": 66015,
    "publicTransportAvailability": "high",
    "latitude": 41.565627,
    "longitude": 120.453743
  },
  {
    "neighborhood": "Merry",
    "state": "11",
    "city": "Schiedam postbusnummers",
    "averageAge": 22,
    "distanceFromCityCenter": 13.3,
    "averageIncome": 45083,
    "publicTransportAvailability": "low",
    "latitude": 51.883,
    "longitude": 4.3577
  },
  {
    "neighborhood": "Ridge Oak",
    "city": "Pensilvania",
    "averageAge": 20,
    "distanceFromCityCenter": 5.5,
    "averageIncome": 77102,
    "publicTransportAvailability": "medium",
    "latitude": 5.478256,
    "longitude": -75.1311874
  },
  {
    "neighborhood": "Blaine",
    "city": "Daduchuan",
    "averageAge": 48,
    "distanceFromCityCenter": 54.3,
    "averageIncome": 24208,
    "publicTransportAvailability": "medium",
    "latitude": 47.182723,
    "longitude": 123.00932
  },
  {
    "neighborhood": "Heffernan",
    "city": "Zhongtang",
    "averageAge": 53,
    "distanceFromCityCenter": 55.1,
    "averageIncome": 78698,
    "publicTransportAvailability": "medium",
    "latitude": 23.092389,
    "longitude": 113.657419
  },
  {
    "neighborhood": "Truax",
    "city": "Xiayang",
    "averageAge": 35,
    "distanceFromCityCenter": 92.1,
    "averageIncome": 38127,
    "publicTransportAvailability": "none",
    "latitude": 26.480043,
    "longitude": 113.778639
  },
  {
    "neighborhood": "Spaight",
    "city": "Kornyn",
    "averageAge": 65,
    "distanceFromCityCenter": 0.4,
    "averageIncome": 50094,
    "publicTransportAvailability": "none",
    "latitude": 50.0920849,
    "longitude": 29.5436691
  },
  {
    "neighborhood": "Holmberg",
    "city": "Itapevi",
    "averageAge": 33,
    "distanceFromCityCenter": 10.2,
    "averageIncome": 40915,
    "publicTransportAvailability": "high",
    "latitude": -23.5325624,
    "longitude": -46.9772966
  },
  {
    "neighborhood": "Susan",
    "city": "Cibunar",
    "averageAge": 31,
    "distanceFromCityCenter": 62.2,
    "averageIncome": 34939,
    "publicTransportAvailability": "low",
    "latitude": -6.3413734,
    "longitude": 106.5495683
  },
  {
    "neighborhood": "Buell",
    "state": "GP",
    "city": "Pointe-à-Pitre",
    "averageAge": 21,
    "distanceFromCityCenter": 25.0,
    "averageIncome": 57772,
    "publicTransportAvailability": "none",
    "latitude": 16.2676129,
    "longitude": -61.527249
  },
  {
    "neighborhood": "Reindahl",
    "city": "Shirokaya Rechka",
    "averageAge": 44,
    "distanceFromCityCenter": 73.0,
    "averageIncome": 90230,
    "publicTransportAvailability": "high",
    "latitude": 56.7980147,
    "longitude": 60.4890295
  },
  {
    "neighborhood": "Debs",
    "city": "Āl Ma‘ūdah",
    "averageAge": 61,
    "distanceFromCityCenter": 84.8,
    "averageIncome": 72810,
    "publicTransportAvailability": "low",
    "latitude": 14.211024,
    "longitude": 45.3868766
  },
  {
    "neighborhood": "Dottie",
    "city": "Jiyang",
    "averageAge": 18,
    "distanceFromCityCenter": 36.5,
    "averageIncome": 60426,
    "publicTransportAvailability": "none",
    "latitude": 36.978537,
    "longitude": 117.173524
  },
  {
    "neighborhood": "Charing Cross",
    "city": "Pangtangis Dajah",
    "averageAge": 33,
    "distanceFromCityCenter": 16.4,
    "averageIncome": 20790,
    "publicTransportAvailability": "none",
    "latitude": -6.9203,
    "longitude": 113.4257
  },
  {
    "neighborhood": "Cordelia",
    "city": "Fengyi",
    "averageAge": 68,
    "distanceFromCityCenter": 15.7,
    "averageIncome": 40283,
    "publicTransportAvailability": "medium",
    "latitude": 40.8246053,
    "longitude": -73.112232
  },
  {
    "neighborhood": "Killdeer",
    "city": "Situ",
    "averageAge": 66,
    "distanceFromCityCenter": 31.2,
    "averageIncome": 62210,
    "publicTransportAvailability": "low",
    "latitude": 36.25745,
    "longitude": 112.891275
  },
  {
    "neighborhood": "Cambridge",
    "city": "Gandusari",
    "averageAge": 52,
    "distanceFromCityCenter": 92.4,
    "averageIncome": 47229,
    "publicTransportAvailability": "none",
    "latitude": -8.1264039,
    "longitude": 111.7018452
  },
  {
    "neighborhood": "Spenser",
    "city": "Nanling",
    "averageAge": 57,
    "distanceFromCityCenter": 99.5,
    "averageIncome": 36985,
    "publicTransportAvailability": "high",
    "latitude": 30.914922,
    "longitude": 118.334359
  },
  {
    "neighborhood": "Kedzie",
    "city": "Nagorsk",
    "averageAge": 43,
    "distanceFromCityCenter": 20.1,
    "averageIncome": 97662,
    "publicTransportAvailability": "high",
    "latitude": 59.3119146,
    "longitude": 50.8076496
  },
  {
    "neighborhood": "Annamark",
    "state": "NY",
    "city": "New York City",
    "averageAge": 46,
    "distanceFromCityCenter": 0.6,
    "averageIncome": 20466,
    "publicTransportAvailability": "none",
    "latitude": 40.7582228,
    "longitude": -73.9704871
  },
  {
    "neighborhood": "Kinsman",
    "city": "San Bernardo",
    "averageAge": 52,
    "distanceFromCityCenter": 58.5,
    "averageIncome": 41678,
    "publicTransportAvailability": "high",
    "latitude": 17.361305,
    "longitude": 121.879282
  },
  {
    "neighborhood": "Reindahl",
    "city": "Burqah",
    "averageAge": 56,
    "distanceFromCityCenter": 35.5,
    "averageIncome": 33599,
    "publicTransportAvailability": "medium",
    "latitude": 31.896059,
    "longitude": 35.254768
  },
  {
    "neighborhood": "Caliangt",
    "city": "Bojongbenteng",
    "averageAge": 51,
    "distanceFromCityCenter": 86.8,
    "averageIncome": 76342,
    "publicTransportAvailability": "medium",
    "latitude": -7.1278,
    "longitude": 108.2102
  },
  {
    "neighborhood": "5th",
    "city": "Hậu Nghĩa",
    "averageAge": 66,
    "distanceFromCityCenter": 78.6,
    "averageIncome": 32216,
    "publicTransportAvailability": "medium",
    "latitude": 10.9070312,
    "longitude": 106.3905338
  },
  {
    "neighborhood": "Pleasure",
    "city": "Zhumadian",
    "averageAge": 34,
    "distanceFromCityCenter": 19.6,
    "averageIncome": 85971,
    "publicTransportAvailability": "low",
    "latitude": 33.011529,
    "longitude": 114.022298
  },
  {
    "neighborhood": "Sheridan",
    "city": "Jianjun",
    "averageAge": 50,
    "distanceFromCityCenter": 20.3,
    "averageIncome": 33185,
    "publicTransportAvailability": "high",
    "latitude": 36.4406171,
    "longitude": 119.2131226
  },
  {
    "neighborhood": "Lerdahl",
    "city": "Boende",
    "averageAge": 23,
    "distanceFromCityCenter": 25.9,
    "averageIncome": 97307,
    "publicTransportAvailability": "low",
    "latitude": -0.2842862,
    "longitude": 20.8850949
  },
  {
    "neighborhood": "Annamark",
    "city": "El Dividive",
    "averageAge": 34,
    "distanceFromCityCenter": 13.6,
    "averageIncome": 60718,
    "publicTransportAvailability": "medium",
    "latitude": 9.4745801,
    "longitude": -70.7346811
  },
  {
    "neighborhood": "Carioca",
    "city": "Nāṟay",
    "averageAge": 45,
    "distanceFromCityCenter": 2.2,
    "averageIncome": 19373,
    "publicTransportAvailability": "high",
    "latitude": 35.2121805,
    "longitude": 71.5249154
  },
  {
    "neighborhood": "Southridge",
    "city": "Nabeul",
    "averageAge": 47,
    "distanceFromCityCenter": 12.6,
    "averageIncome": 25299,
    "publicTransportAvailability": "low",
    "latitude": 36.4550658,
    "longitude": 10.7154228
  },
  {
    "neighborhood": "Walton",
    "city": "Yaoundé",
    "averageAge": 53,
    "distanceFromCityCenter": 63.3,
    "averageIncome": 32495,
    "publicTransportAvailability": "none",
    "latitude": 3.8480325,
    "longitude": 11.5020752
  },
  {
    "neighborhood": "Service",
    "city": "Taohua",
    "averageAge": 19,
    "distanceFromCityCenter": 90.8,
    "averageIncome": 48533,
    "publicTransportAvailability": "high",
    "latitude": 29.834787,
    "longitude": 122.273713
  },
  {
    "neighborhood": "Northport",
    "state": "X",
    "city": "Edsbyn",
    "averageAge": 44,
    "distanceFromCityCenter": 67.4,
    "averageIncome": 89125,
    "publicTransportAvailability": "medium",
    "latitude": 61.3611476,
    "longitude": 15.9055746
  },
  {
    "neighborhood": "Hazelcrest",
    "state": "01",
    "city": "Pigeiros",
    "averageAge": 60,
    "distanceFromCityCenter": 67.0,
    "averageIncome": 59753,
    "publicTransportAvailability": "low",
    "latitude": 40.9512231,
    "longitude": -8.4860645
  },
  {
    "neighborhood": "Daystar",
    "city": "Danyang",
    "averageAge": 57,
    "distanceFromCityCenter": 91.0,
    "averageIncome": 46462,
    "publicTransportAvailability": "high",
    "latitude": 32.010214,
    "longitude": 119.606439
  },
  {
    "neighborhood": "Mcguire",
    "city": "Pirca",
    "averageAge": 64,
    "distanceFromCityCenter": 0.9,
    "averageIncome": 74540,
    "publicTransportAvailability": "medium",
    "latitude": -11.24674,
    "longitude": -76.661598
  },
  {
    "neighborhood": "Sherman",
    "city": "Quỳnh Côi",
    "averageAge": 31,
    "distanceFromCityCenter": 8.6,
    "averageIncome": 45212,
    "publicTransportAvailability": "low",
    "latitude": 20.6561071,
    "longitude": 106.3301914
  },
  {
    "neighborhood": "Rusk",
    "city": "Yucheng",
    "averageAge": 60,
    "distanceFromCityCenter": 72.8,
    "averageIncome": 48201,
    "publicTransportAvailability": "high",
    "latitude": 36.933812,
    "longitude": 116.638327
  },